Adana
Adıyaman
Afyon
Ağrı
Amasya
Ankara
Antalya
Artvin
Aydın
Balıkesir
Bilecik
Bingöl
Bitlis
Bolu
Burdur
Bursa
Çanakkale
Çankırı
Çorum
Denizli
Diyarbakır
Edirne
Elazığ
Erzincan
Erzurum
Eskişehir
Gaziantep
Giresun
Gümüşhane
Hakkari
Hatay
Isparta
Mersin
İstanbul
İzmir
Kars
Kastamonu
Kayseri
Kırklareli
Kırşehir
Kocaeli
Konya
Kütahya
Malatya
Manisa
Kahraman maraş
Mardin
Muğla
Muş
Nevşehir
Niğde
Ordu
Rize
Sakarya
Samsun
Siirt
Sinop
Sivas
Tekirdağ
Tokat
Trabzon
Tunceli
Şanlıurfa
Uşak
Van
Yozgat
Zonguldak
Aksaray
Bayburt
Karaman
Kırıkkale
Batman
Şırnak
Bartın
Ardahan
Iğdır
Yalova
Karabük
Kilis
Osmaniye
Düzce
{"Osmaniye":{"Osmaniye":{"id":"103734092998597","title":"Osmaniye","latitude":37.0833,"longitude":36.25},"Hemite, Osmaniye":{"id":"110557885631207","title":"Hemite, Osmaniye","latitude":37.190725839657,"longitude":36.091624850105},"Osmaniye, Bursa, Turkey":{"id":"114241865257285","title":"Osmaniye, Bursa, Turkey","latitude":39.962046410903,"longitude":28.645298832509},"Osmaniye, Ankara, Turkey":{"id":"106408762726208","title":"Osmaniye, Ankara, Turkey","latitude":39.965,"longitude":32.5308},"Osmaniye, Izmir, Turkey":{"id":"108858615801276","title":"Osmaniye, Izmir, Turkey","latitude":38.290987964444,"longitude":27.5188721},"Osmaniye, Sivas, Turkey":{"id":"108768182477574","title":"Osmaniye, Sivas, Turkey","latitude":39.8333,"longitude":37.8333},"Mehmetli, Osmaniye, Turkey":{"id":"106538649378675","title":"Mehmetli, Osmaniye, Turkey","latitude":37.4833,"longitude":36.0333},"Osmaniye, Sinop, Turkey":{"id":"110426858982877","title":"Osmaniye, Sinop, Turkey","latitude":41.993859437933,"longitude":35.060590555906},"Osmaniye, Karaman, Turkey":{"id":"104911612877473","title":"Osmaniye, Karaman, Turkey","latitude":37.3619,"longitude":33.6836},"Alibeyli, Osmaniye, Turkey":{"id":"109248822430687","title":"Alibeyli, Osmaniye, Turkey","latitude":37.45,"longitude":36.05}}}
{"Düzce":{"Düzce":{"id":"107677699254793","title":"Düzce","latitude":40.8389,"longitude":31.1639},"Düzce, Izmir, Turkey":{"id":"104645679574004","title":"Düzce, Izmir, Turkey","latitude":38.2419,"longitude":26.8156},"Düzce, Famagusta, Cyprus":{"id":"112914815391053","title":"Düzce, Famagusta, Cyprus","latitude":35.0583,"longitude":33.7833},"Düzce, Adana, Turkey":{"id":"109080612453075","title":"Düzce, Adana, Turkey","latitude":36.9,"longitude":35.4833},"Düzce, Samsun, Turkey":{"id":"113036232046721","title":"Düzce, Samsun, Turkey","latitude":41.2833,"longitude":35.2},"Düzce, Kastamonu, Turkey":{"id":"106922609339930","title":"Düzce, Kastamonu, Turkey","latitude":41.267177711878,"longitude":32.769328575993},"Akçakoca":{"id":"107436795952929","title":"Akçakoca","latitude":41.085791140112,"longitude":31.136230821526},"Achna":{"id":"110490018980002","title":"Achna","latitude":35.0583,"longitude":33.7833},"Topçular, Bolu, Turkey":{"id":"108342535855770","title":"Topçular, Bolu, Turkey","latitude":40.8667,"longitude":31.05},"Konuralp, Bolu, Turkey":{"id":"106866612677527","title":"Konuralp, Bolu, Turkey","latitude":40.9033,"longitude":31.1475}}}
{"Tunceli":{"Tunceli":{"id":"104132662956188","title":"Tunceli","latitude":39.107228407767,"longitude":39.548714379244},"Dersim, Tunceli, Turkey":{"id":"106468289385994","title":"Dersim, Tunceli, Turkey","latitude":39.1089,"longitude":39.2217},"Pertek, Tunceli, Turkey":{"id":"111789715512930","title":"Pertek, Tunceli, Turkey","latitude":38.86601,"longitude":39.32731},"Hozat, Tunceli, Turkey":{"id":"107444512626611","title":"Hozat, Tunceli, Turkey","latitude":39.1064,"longitude":39.22135},"Pülümür, Tunceli":{"id":"105500039484372","title":"Pülümür, Tunceli","latitude":39.48656,"longitude":39.89923},"Mazgirt, Tunceli, Turkey":{"id":"112588015427044","title":"Mazgirt, Tunceli, Turkey","latitude":39.01837,"longitude":39.60442},"Viransehir, Tunceli, Turkey":{"id":"108725209150254","title":"Viransehir, Tunceli, Turkey","latitude":39.45,"longitude":40.15},"Bayburtlu, Tunceli, Turkey":{"id":"100247276684209","title":"Bayburtlu, Tunceli, Turkey","latitude":39.5333,"longitude":39.85},"Mameki, Tunceli, Turkey":{"id":"108992449129632","title":"Mameki, Tunceli, Turkey","latitude":39.1089,"longitude":39.5461},"Alacakaya":{"id":"107829869239788","title":"Alacakaya","latitude":39.45,"longitude":39.85}}}
{"Kilis":{"Kilis":{"id":"105999136098737","title":"Kilis","latitude":36.715253194211,"longitude":37.114106019384},"Musabeyli, Kilis":{"id":"106539599376270","title":"Musabeyli, Kilis","latitude":36.88698,"longitude":36.9197},"Elbeyli, Kilis":{"id":"108130822541986","title":"Elbeyli, Kilis","latitude":36.67497,"longitude":37.46651},"Ciliza, Kilis, Turkey":{"id":"107153452656564","title":"Ciliza, Kilis, Turkey","latitude":36.7161,"longitude":37.115},"Tibil, Kilis, Turkey":{"id":"111433158878686","title":"Tibil, Kilis, Turkey","latitude":36.6439,"longitude":37.0875},"Delhemi, Kilis, Turkey":{"id":"110286028990796","title":"Delhemi, Kilis, Turkey","latitude":36.7,"longitude":37.3167},"Tilhabes, Kilis, Turkey":{"id":"114309025245771","title":"Tilhabes, Kilis, Turkey","latitude":36.7167,"longitude":37.2333},"Acar, Kilis, Turkey":{"id":"104943419542205","title":"Acar, Kilis, Turkey","latitude":36.7442,"longitude":37.1931},"Arpakesmez, Kilis, Turkey":{"id":"107240752641287","title":"Arpakesmez, Kilis, Turkey","latitude":36.6706,"longitude":37.1819},"Polateli":{"id":"112069048805008","title":"Polateli","latitude":36.84088,"longitude":37.14354}}}
{"Gümüşhane":{"Gümüşhane":{"id":"108107259224134","title":"Gümüşhane","latitude":40.45915,"longitude":39.48319},"Gumushane, Artvin, Turkey":{"id":"100243036684038","title":"Gumushane, Artvin, Turkey","latitude":41.1167,"longitude":41.9333},"Sogutlu, Gumushane, Turkey":{"id":"106505469383785","title":"Sogutlu, Gumushane, Turkey","latitude":40.0892,"longitude":39.2539},"Susuz, Gumushane, Turkey":{"id":"116314458383492","title":"Susuz, Gumushane, Turkey","latitude":40.1167,"longitude":39.2167},"Ericek, Gumushane, Turkey":{"id":"109301239093728","title":"Ericek, Gumushane, Turkey","latitude":40.15,"longitude":39.1833},"Bolluk, Gumushane, Turkey":{"id":"104343529605880","title":"Bolluk, Gumushane, Turkey","latitude":40.1167,"longitude":39.1},"Kozagac, Gumushane, Turkey":{"id":"100249566682950","title":"Kozagac, Gumushane, Turkey","latitude":40.0933,"longitude":39.1347},"Tepedam, Gumushane, Turkey":{"id":"116561081687728","title":"Tepedam, Gumushane, Turkey","latitude":40.0833,"longitude":39.15},"Kelkit":{"id":"109184905767768","title":"Kelkit","latitude":40.128611111111,"longitude":39.438333333333},"Torul":{"id":"107883619234565","title":"Torul","latitude":40.55813,"longitude":39.2932}}}
{"Elazığ":{"Türkiyan, Elazığ, Turkey":{"id":"113579801990822","title":"Türkiyan, Elazığ, Turkey","latitude":38.8833,"longitude":40.1167},"Acibadem, Elazığ, Turkey":{"id":"112936105390381","title":"Acibadem, Elazığ, Turkey","latitude":38.45,"longitude":39.55},"Elâzığ":{"id":"110849722268540","title":"Elâzığ","latitude":38.6753,"longitude":39.2206},"Palu":{"id":"102173546491438","title":"Palu","latitude":38.6936,"longitude":39.92859},"Maden, Elâzığ":{"id":"103133156393932","title":"Maden, Elâzığ","latitude":38.39183,"longitude":39.6682},"Baskil":{"id":"113538695323171","title":"Baskil","latitude":38.578055555556,"longitude":38.823055555556},"Sivrice":{"id":"108552075843677","title":"Sivrice","latitude":38.44853,"longitude":39.30771},"Keban":{"id":"114996211849686","title":"Keban","latitude":38.7925,"longitude":38.743888888889},"Karakoçan":{"id":"112651182080588","title":"Karakoçan","latitude":38.95,"longitude":40.033333333333},"Kovancılar":{"id":"107405395948813","title":"Kovancılar","latitude":38.71728,"longitude":39.86777}}}
{"Afyon":{"Afyonkarahisar":{"id":"104005312969719","title":"Afyonkarahisar","latitude":38.758055555556,"longitude":30.538611111111},"Dinar, Afyonkarahisar, Turkey":{"id":"107455682624217","title":"Dinar, Afyonkarahisar, Turkey","latitude":38.068370740279,"longitude":30.166924152745},"Sandıklı, Afyonkarahisar":{"id":"104077979627322","title":"Sandıklı, Afyonkarahisar","latitude":38.46493,"longitude":30.27296},"Çay, Afyonkarahisar":{"id":"108556465835103","title":"Çay, Afyonkarahisar","latitude":38.5917,"longitude":31.0286},"Sultandagı, Afyonkarahisar, Turkey":{"id":"108354585861050","title":"Sultandagı, Afyonkarahisar, Turkey","latitude":38.530428623881,"longitude":31.23112888209},"İscehisar, Afyonkarahisar":{"id":"111772442172057","title":"İscehisar, Afyonkarahisar","latitude":38.85443840998,"longitude":30.76015388484},"Dazkırı, Afyonkarahisar":{"id":"111883752161959","title":"Dazkırı, Afyonkarahisar","latitude":37.91281040111,"longitude":29.863264880678},"Emirdağ":{"id":"107752569258541","title":"Emirdağ","latitude":39.0197,"longitude":31.15},"Bolvadin":{"id":"103331959699049","title":"Bolvadin","latitude":38.710264616185,"longitude":31.048269712391},"Şuhut":{"id":"108257649206023","title":"Şuhut","latitude":38.532495708544,"longitude":30.551200370313}}}
{"Tokat":{"Tokat (ilçe)":{"id":"108193755869210","title":"Tokat (ilçe)","latitude":40.3139,"longitude":36.5542},"Zile, Tokat":{"id":"108015969219907","title":"Zile, Tokat","latitude":40.29745,"longitude":35.89143},"Sulusaray, Tokat":{"id":"106201879411959","title":"Sulusaray, Tokat","latitude":39.99348,"longitude":36.08401},"Erbaa, Tokat, Turkey":{"id":"113187928694184","title":"Erbaa, Tokat, Turkey","latitude":40.6703199,"longitude":36.5676},"Turhal, Tokat, Turkey":{"id":"109568789073648","title":"Turhal, Tokat, Turkey","latitude":40.39379,"longitude":36.09213},"Resadiye, Tokat, Turkey":{"id":"110778065615413","title":"Resadiye, Tokat, Turkey","latitude":40.2,"longitude":35.7},"Almus, Tokat, Turkey":{"id":"110120579006314","title":"Almus, Tokat, Turkey","latitude":40.2833,"longitude":36.3667},"Artova, Tokat, Turkey":{"id":"104934476208535","title":"Artova, Tokat, Turkey","latitude":40.0864,"longitude":36.4772},"Pazar, Tokat, Turkey":{"id":"109289989094797","title":"Pazar, Tokat, Turkey","latitude":40.27687,"longitude":36.28509},"Niksar":{"id":"115820868428381","title":"Niksar","latitude":40.5901799,"longitude":36.95096}}}
{"Tekirdağ":{"Tekirdağ":{"id":"106039282769577","title":"Tekirdağ","latitude":40.9771,"longitude":27.5039},"Saray, Tekirdağ":{"id":"102152196493698","title":"Saray, Tekirdağ","latitude":41.446902305609,"longitude":27.921106231171},"Sarkoy, Tekirdağ, Turkey":{"id":"110544132298293","title":"Sarkoy, Tekirdağ, Turkey","latitude":40.6161,"longitude":27.1008},"Velimese, Tekirdağ, Turkey":{"id":"109050712456936","title":"Velimese, Tekirdağ, Turkey","latitude":41.2536,"longitude":27.8783},"Kapaklı, Tekirdağ, Turkey":{"id":"112983515380257","title":"Kapaklı, Tekirdağ, Turkey","latitude":41.33001,"longitude":27.97451},"Kumbağ, Tekirdağ, Turkey":{"id":"104671059572018","title":"Kumbağ, Tekirdağ, Turkey","latitude":40.884881242132,"longitude":27.458951369831},"Malkara":{"id":"109268319099078","title":"Malkara","latitude":40.893333333333,"longitude":26.904166666667},"Çorlu":{"id":"108067002547265","title":"Çorlu","latitude":41.1592,"longitude":27.8},"Hayrabolu":{"id":"112657895412021","title":"Hayrabolu","latitude":41.209080826798,"longitude":27.109131866106},"Çerkezköy":{"id":"107504189272078","title":"Çerkezköy","latitude":41.274609311243,"longitude":28.014886991198}}}
{"Şanlıurfa":{"Sanlıurfa":{"id":"111798665505207","title":"Sanlıurfa","latitude":37.1511,"longitude":38.7928},"Birecik, Şanlıurfa":{"id":"112797845399781","title":"Birecik, Şanlıurfa","latitude":37.02522,"longitude":37.97669},"Harran, Şanlıurfa":{"id":"104083982962014","title":"Harran, Şanlıurfa","latitude":36.86324,"longitude":39.02454},"Siverek, Şanlıurfa, Turkey":{"id":"111499828877458","title":"Siverek, Şanlıurfa, Turkey","latitude":37.7535,"longitude":39.3168},"Ceylanpınar, Şanlıurfa":{"id":"109270535765767","title":"Ceylanpınar, Şanlıurfa","latitude":36.85009,"longitude":40.04797},"Halfeti, Şanlıurfa, Turkey":{"id":"108891562478097","title":"Halfeti, Şanlıurfa, Turkey","latitude":37.22786,"longitude":37.94678},"Akçakale, Şanlıurfa":{"id":"108469112510077","title":"Akçakale, Şanlıurfa","latitude":36.71323,"longitude":38.95055},"Bozova, Şanlıurfa, Turkey":{"id":"103387056370209","title":"Bozova, Şanlıurfa, Turkey","latitude":37.35934,"longitude":38.51908},"Hilvan, Şanlıurfa, Turkey":{"id":"106955812678187","title":"Hilvan, Şanlıurfa, Turkey","latitude":37.58657,"longitude":38.95426},"Suruç, Şanlıurfa, Turkey":{"id":"111739695520284","title":"Suruç, Şanlıurfa, Turkey","latitude":36.97501,"longitude":38.42743}}}
{"Adıyaman":{"Adıyaman":{"id":"108798495811514","title":"Adıyaman","latitude":37.7592,"longitude":38.2783},"Adıyaman, Turkey":{"id":"190539877623335","title":"Adıyaman, Turkey","latitude":37.9167,"longitude":34.65},"Besni, Adiyaman, Turkey":{"id":"107502582620274","title":"Besni, Adiyaman, Turkey","latitude":37.68932,"longitude":37.86493},"Menzil, Adiyaman, Turkey":{"id":"106493869383154","title":"Menzil, Adiyaman, Turkey","latitude":37.768053201984,"longitude":38.762905582763},"Gerger, Adiyaman, Turkey":{"id":"111926988828730","title":"Gerger, Adiyaman, Turkey","latitude":38.02937,"longitude":39.03435},"Baki, Adiyaman, Turkey":{"id":"104308532942552","title":"Baki, Adiyaman, Turkey","latitude":37.9667,"longitude":39},"Sincik, Adiyaman, Turkey":{"id":"116362218378359","title":"Sincik, Adiyaman, Turkey","latitude":38.02801,"longitude":38.62039},"Kâhta, Adiyaman, Turkey":{"id":"106984629332802","title":"Kâhta, Adiyaman, Turkey","latitude":37.786877401956,"longitude":38.634181856562},"Bebek, Adiyaman, Turkey":{"id":"106966372667876","title":"Bebek, Adiyaman, Turkey","latitude":37.531990007074,"longitude":38.258436515832},"Sambayat, Adiyaman, Turkey":{"id":"104981426203770","title":"Sambayat, Adiyaman, Turkey","latitude":37.6803,"longitude":38.0508}}}
{"Ağrı":{"Ağrı":{"id":"108002732561081","title":"Ağrı","latitude":39.719,"longitude":43.0506},"Patnos, Agri, Turkey":{"id":"116099031736674","title":"Patnos, Agri, Turkey","latitude":39.24046,"longitude":42.85607},"Eleskirt, Agri, Turkey":{"id":"116630538350443","title":"Eleskirt, Agri, Turkey","latitude":39.79782,"longitude":42.67563},"Diyadin, Agri, Turkey":{"id":"110476452311871","title":"Diyadin, Agri, Turkey","latitude":39.53981,"longitude":43.67172},"Tutak, Agri, Turkey":{"id":"106985189342162","title":"Tutak, Agri, Turkey","latitude":39.54001,"longitude":42.77172},"Hamur, Agri, Turkey":{"id":"116762255005159","title":"Hamur, Agri, Turkey","latitude":39.61006,"longitude":42.98932},"Agrı, Agri, Turkey":{"id":"110411872317766","title":"Agrı, Agri, Turkey","latitude":39.719068,"longitude":43.0506},"Tuzluca, Agri, Turkey":{"id":"106910386007332","title":"Tuzluca, Agri, Turkey","latitude":40.04148,"longitude":43.6622},"Tahir, Agri, Turkey":{"id":"110592575626030","title":"Tahir, Agri, Turkey","latitude":39.8667,"longitude":42.45},"Nahcivan, Agri, Turkey":{"id":"110646122295153","title":"Nahcivan, Agri, Turkey","latitude":40.2894,"longitude":43.4617}}}
{"Sakarya":{"Geyve, Sakarya":{"id":"104074529630236","title":"Geyve, Sakarya","latitude":40.5075,"longitude":30.2925},"Sakarya, Sakarya, Turkey":{"id":"106516089381339","title":"Sakarya, Sakarya, Turkey","latitude":40.774764618212,"longitude":30.396674564023},"Karasu, Sakarya, Turkey":{"id":"111969745494522","title":"Karasu, Sakarya, Turkey","latitude":41.0703,"longitude":30.7836},"Hendek, Sakarya, Turkey":{"id":"104943796208327","title":"Hendek, Sakarya, Turkey","latitude":40.79822477351,"longitude":30.752177264378},"Sapanca, Sakarya, Turkey":{"id":"108698159152640","title":"Sapanca, Sakarya, Turkey","latitude":40.682967834823,"longitude":30.267096407637},"Serdivan, Sakarya, Turkey":{"id":"109402095750410","title":"Serdivan, Sakarya, Turkey","latitude":40.76539,"longitude":30.36357},"Kocaali, Sakarya, Turkey":{"id":"106413906057722","title":"Kocaali, Sakarya, Turkey","latitude":41.0545,"longitude":30.85061},"Pamukova, Sakarya, Turkey":{"id":"106360379398673","title":"Pamukova, Sakarya, Turkey","latitude":40.5055,"longitude":30.1696},"Kaynarca, Sakarya, Turkey":{"id":"110564058969186","title":"Kaynarca, Sakarya, Turkey","latitude":41.0308,"longitude":30.3075},"Arifiye, Sakarya, Turkey":{"id":"104723426233023","title":"Arifiye, Sakarya, Turkey","latitude":40.709812797031,"longitude":30.354733692672}}}
{"Siirt":{"Siirt":{"id":"111881405495495","title":"Siirt","latitude":37.927516,"longitude":41.942442},"Kufra":{"id":"106166629414409","title":"Kufra","latitude":38.0633,"longitude":42.0269},"Kumlu":{"id":"109572455736548","title":"Kumlu","latitude":38.1,"longitude":41.95},"Hadid":{"id":"108424665849202","title":"Hadid","latitude":37.8072,"longitude":41.9422},"Kurtalan, Bitlis, Turkey":{"id":"116247218389138","title":"Kurtalan, Bitlis, Turkey","latitude":37.92688,"longitude":41.70372},"Eruh, Bitlis, Turkey":{"id":"111375578891907","title":"Eruh, Bitlis, Turkey","latitude":37.74882,"longitude":42.17928},"Baykan, Bitlis, Turkey":{"id":"109056132456020","title":"Baykan, Bitlis, Turkey","latitude":38.16152,"longitude":41.78233},"Tillo, Bitlis, Turkey":{"id":"109112245775484","title":"Tillo, Bitlis, Turkey","latitude":37.94925,"longitude":42.01135},"Pervari, Bitlis, Turkey":{"id":"111454842208530","title":"Pervari, Bitlis, Turkey","latitude":37.93301,"longitude":42.54737},"Indiyanis, Bitlis, Turkey":{"id":"113273075351552","title":"Indiyanis, Bitlis, Turkey","latitude":38.15,"longitude":42.3167}}}
{"Van":{"Van, Turkey":{"id":"108405619183556","title":"Van, Turkey","latitude":38.4942,"longitude":43.38},"Van, Teksas":{"id":"108002459228132","title":"Van, Teksas","latitude":32.526,"longitude":-95.6365},"Van Ninh":{"id":"109983869031514","title":"Van Ninh","latitude":12.7,"longitude":109.233},"Van Ban":{"id":"106570319380349","title":"Van Ban","latitude":22.05,"longitude":104.133},"Van, West Virginia":{"id":"104061232963666","title":"Van, West Virginia","latitude":37.9711,"longitude":-81.7108},"Van Buren, Arkansas":{"id":"106302589400613","title":"Van Buren, Arkansas","latitude":35.4354,"longitude":-94.3527},"Van Giang":{"id":"110382918991142","title":"Van Giang","latitude":16.45,"longitude":107.7},"Van Wert, Ohio":{"id":"103979289638760","title":"Van Wert, Ohio","latitude":40.867777777778,"longitude":-84.583333333333},"Muradiye, Van":{"id":"113278722020397","title":"Muradiye, Van","latitude":38.9872,"longitude":43.76256},"Edremit, Van":{"id":"109268992436660","title":"Edremit, Van","latitude":38.424166666667,"longitude":43.256111111111}}}
{"Edirne":{"Edirne":{"id":"104116012957894","title":"Edirne","latitude":41.68,"longitude":26.55},"Enez, Edirne":{"id":"108707292486449","title":"Enez, Edirne","latitude":40.7247,"longitude":26.0825},"İpsala, Edirne":{"id":"111936432152148","title":"İpsala, Edirne","latitude":40.926321114416,"longitude":26.389345967716},"Uzunköprü, Edirne":{"id":"109217549105067","title":"Uzunköprü, Edirne","latitude":41.265076847634,"longitude":26.69044135156},"Havsa, Edirne, Turkey":{"id":"112968215395452","title":"Havsa, Edirne, Turkey","latitude":41.54952,"longitude":26.82195},"Suloglu, Edirne, Turkey":{"id":"113073495379159","title":"Suloglu, Edirne, Turkey","latitude":41.768000272698,"longitude":26.909658895174},"Erikli, Edirne, Turkey":{"id":"108555209173928","title":"Erikli, Edirne, Turkey","latitude":40.6381,"longitude":26.4542},"Lalapasa, Edirne, Turkey":{"id":"108909559143831","title":"Lalapasa, Edirne, Turkey","latitude":41.83927,"longitude":26.7342},"Adrianoupolis, Edirne, Turkey":{"id":"109956582355533","title":"Adrianoupolis, Edirne, Turkey","latitude":41.6744,"longitude":26.5608},"Kesan":{"id":"108170002548971","title":"Kesan","latitude":40.854169501783,"longitude":26.626529888308}}}
{"Kırklareli":{"Kırklareli":{"id":"109545699065421","title":"Kırklareli","latitude":41.73589,"longitude":27.22469},"Vize, Kırklareli, Turkey":{"id":"104990916205315","title":"Vize, Kırklareli, Turkey","latitude":41.57828783582,"longitude":27.758796488876},"Kaynarca, Kırklareli, Turkey":{"id":"104315489609220","title":"Kaynarca, Kırklareli, Turkey","latitude":41.657919428134,"longitude":27.47121420964},"Alpullu, Kırklareli, Turkey":{"id":"110389055654470","title":"Alpullu, Kırklareli, Turkey","latitude":41.3692,"longitude":27.1453},"Ahmetbey, Kırklareli, Turkey":{"id":"104622979577099","title":"Ahmetbey, Kırklareli, Turkey","latitude":41.440671539736,"longitude":27.585608941128},"Pınarhisar, Kırklareli, Turkey":{"id":"114717701872307","title":"Pınarhisar, Kırklareli, Turkey","latitude":41.631889495051,"longitude":27.510198639338},"Evrensekiz, Kırklareli, Turkey":{"id":"110667938959000","title":"Evrensekiz, Kırklareli, Turkey","latitude":41.372204075806,"longitude":27.489523051613},"Babaeski":{"id":"108210155867918","title":"Babaeski","latitude":41.424402638522,"longitude":27.099925959008},"Lüleburgaz":{"id":"107548599268480","title":"Lüleburgaz","latitude":41.4057,"longitude":27.3571},"İğneada, Demirköy":{"id":"111459125538642","title":"İğneada, Demirköy","latitude":41.8744,"longitude":27.9839}}}
{"Erzurum":{"Erzurum":{"id":"109762435717447","title":"Erzurum","latitude":39.9054,"longitude":41.2659},"Oltu, Erzurum":{"id":"108659052491468","title":"Oltu, Erzurum","latitude":40.54605,"longitude":41.99593},"Dadas, Erzurum, Turkey":{"id":"105007229536169","title":"Dadas, Erzurum, Turkey","latitude":39.95,"longitude":41.25},"İspir, Erzurum":{"id":"108044582557908","title":"İspir, Erzurum","latitude":40.48419,"longitude":41.00105},"Askale, Erzurum, Turkey":{"id":"104906699545024","title":"Askale, Erzurum, Turkey","latitude":39.92138,"longitude":40.6921899},"Horasan, Erzurum, Turkey":{"id":"111796638840825","title":"Horasan, Erzurum, Turkey","latitude":40.04112,"longitude":42.16756},"Tekman, Erzurum, Turkey":{"id":"111659995522953","title":"Tekman, Erzurum, Turkey","latitude":39.64546,"longitude":41.50502},"Tortum, Erzurum, Turkey":{"id":"109673209064400","title":"Tortum, Erzurum, Turkey","latitude":40.29708,"longitude":41.55086},"Olur, Erzurum, Turkey":{"id":"115483648467160","title":"Olur, Erzurum, Turkey","latitude":40.82902,"longitude":42.13006},"Sananes, Erzurum, Turkey":{"id":"104713082900533","title":"Sananes, Erzurum, Turkey","latitude":40.45,"longitude":41.7833}}}
{"Karabük":{"Karabük":{"id":"107714565924330","title":"Karabük","latitude":41.1964,"longitude":32.6256},"Karabük, Antalya, Turkey":{"id":"104910829544954","title":"Karabük, Antalya, Turkey","latitude":36.5167,"longitude":30.2667},"Karabük, Icel, Turkey":{"id":"113062175372892","title":"Karabük, Icel, Turkey","latitude":36.2667,"longitude":33.5167},"Karabük, Kırşehir, Turkey":{"id":"110186288999700","title":"Karabük, Kırşehir, Turkey","latitude":38.997990357786,"longitude":33.62473633775},"Karabük, Elazığ, Turkey":{"id":"106962366001189","title":"Karabük, Elazığ, Turkey","latitude":38.8167,"longitude":39.8167},"Safranbolu":{"id":"111955342154910","title":"Safranbolu","latitude":41.255602790893,"longitude":32.673954321582},"Eflani, Kastamonu, Turkey":{"id":"112813132067496","title":"Eflani, Kastamonu, Turkey","latitude":41.423149120159,"longitude":32.955709411908},"Tokat, Kastamonu, Turkey":{"id":"104980026205770","title":"Tokat, Kastamonu, Turkey","latitude":41.2833,"longitude":32.7},"Eskipazar, Bolu, Turkey":{"id":"116082278407144","title":"Eskipazar, Bolu, Turkey","latitude":40.94197,"longitude":32.53121},"Kapullu, Kastamonu, Turkey":{"id":"109030019118233","title":"Kapullu, Kastamonu, Turkey","latitude":41.220488106956,"longitude":32.628207035281}}}
{"Kırşehir":{"Kırşehir":{"id":"106323099403053","title":"Kırşehir","latitude":39.1458,"longitude":34.1639},"Kaman, Kırşehir":{"id":"115877288425854","title":"Kaman, Kırşehir","latitude":39.3586,"longitude":33.72438},"Mucur, Kırşehir":{"id":"108995602453636","title":"Mucur, Kırşehir","latitude":39.06316,"longitude":34.37516},"Akçakent, Kırşehir":{"id":"112568552091326","title":"Akçakent, Kırşehir","latitude":39.6264,"longitude":34.09739},"Boztepe, Kırşehir, Turkey":{"id":"100243886683856","title":"Boztepe, Kırşehir, Turkey","latitude":39.27039,"longitude":34.26199},"Cicekdagı, Kırşehir, Turkey":{"id":"113180078694946","title":"Cicekdagı, Kırşehir, Turkey","latitude":39.60314,"longitude":34.41644},"Cemele, Kırşehir, Turkey":{"id":"104331689607069","title":"Cemele, Kırşehir, Turkey","latitude":39.2769,"longitude":34.0747},"Tokluman, Kırşehir, Turkey":{"id":"109572099067590","title":"Tokluman, Kırşehir, Turkey","latitude":39.1247,"longitude":33.7233},"Kartalkaya, Kırşehir, Turkey":{"id":"106988395999091","title":"Kartalkaya, Kırşehir, Turkey","latitude":39.453614117931,"longitude":34.21211706797},"Yagmurlubuyukoba, Kırşehir, Turkey":{"id":"110413415644954","title":"Yagmurlubuyukoba, Kırşehir, Turkey","latitude":39.207153789428,"longitude":33.961724502553}}}
{"Mersin":{"Mersin":{"id":"112929522054724","title":"Mersin","latitude":36.8049,"longitude":34.6227},"Mersin, Ordu, Turkey":{"id":"108684202493765","title":"Mersin, Ordu, Turkey","latitude":41.1167,"longitude":37.7833},"Mersin, Trabzon, Turkey":{"id":"110526545640656","title":"Mersin, Trabzon, Turkey","latitude":41.088394919978,"longitude":39.468470958977},"Mut":{"id":"109667182396449","title":"Mut","latitude":36.648781457458,"longitude":33.429910696702},"Tarsus":{"id":"116222585055158","title":"Tarsus","latitude":36.9178,"longitude":34.8917},"Silifke":{"id":"107875699240446","title":"Silifke","latitude":36.3778,"longitude":33.9344},"Anamur":{"id":"109363182416045","title":"Anamur","latitude":36.074643954419,"longitude":32.844140198856},"Erdemli":{"id":"112535605429119","title":"Erdemli","latitude":36.60666,"longitude":34.30963},"Bodrum, Icel, Turkey":{"id":"113021838714984","title":"Bodrum, Icel, Turkey","latitude":36.1667,"longitude":32.8}}}
{"Kars":{"Kars":{"id":"109461999080795","title":"Kars","latitude":40.6084,"longitude":43.0931},"Kers, Kars, Turkey":{"id":"108527685843142","title":"Kers, Kars, Turkey","latitude":40.2,"longitude":43.25},"Kars, Kandahar, Afghanistan":{"id":"108540829169149","title":"Kars, Kandahar, Afghanistan","latitude":31.5722,"longitude":65.7272},"Kars, Fier, Albania":{"id":"110629062290187","title":"Kars, Fier, Albania","latitude":40.5758,"longitude":19.7372},"Karabag, Kars, Turkey":{"id":"113965625284167","title":"Karabag, Kars, Turkey","latitude":40.2333,"longitude":43.1667},"Digor":{"id":"113865081957727","title":"Digor","latitude":40.375555555556,"longitude":43.4125},"Susuz":{"id":"113446675332834","title":"Susuz","latitude":40.77981,"longitude":43.12892},"Kağızman":{"id":"109366985748604","title":"Kağızman","latitude":40.1581,"longitude":43.1353},"Qars":{"id":"105836809448119","title":"Qars","latitude":40.6081,"longitude":43.0975},"Sarıkamıs, Erzurum, Turkey":{"id":"106375506062261","title":"Sarıkamıs, Erzurum, Turkey","latitude":40.3381,"longitude":42.5731}}}
{"Nevşehir":{"Nevshehr, Nevşehir, Turkey":{"id":"113221352027010","title":"Nevshehr, Nevşehir, Turkey","latitude":38.625,"longitude":34.7122},"Uçhisar, Nevşehir":{"id":"106042736103145","title":"Uçhisar, Nevşehir","latitude":38.627371518988,"longitude":34.799235294016},"Ortahisar, Nevşehir, Turkey":{"id":"112778505414392","title":"Ortahisar, Nevşehir, Turkey","latitude":38.6311,"longitude":34.8572},"Kalaba, Nevşehir, Turkey":{"id":"106988142664863","title":"Kalaba, Nevşehir, Turkey","latitude":38.9618329538,"longitude":35.0113222776},"Hacıbektas, Nevşehir, Turkey":{"id":"104360776271069","title":"Hacıbektas, Nevşehir, Turkey","latitude":38.9436,"longitude":34.5597},"Avanos":{"id":"105570926142227","title":"Avanos","latitude":38.715,"longitude":34.846666666667},"Göreme":{"id":"107633032600021","title":"Göreme","latitude":38.6486,"longitude":34.8639},"Derinkuyu":{"id":"111838392166292","title":"Derinkuyu","latitude":38.369009394415,"longitude":34.741305332819},"Ürgüp":{"id":"108068855888629","title":"Ürgüp","latitude":38.631892488209,"longitude":34.910336749404},"Dobada":{"id":"110925638932104","title":"Dobada","latitude":38.5503,"longitude":34.5092}}}
{"Muş":{"Muş":{"id":"113891388621201","title":"Muş","latitude":38.7415,"longitude":41.4969},"Korkut, Mus, Turkey":{"id":"108887775798292","title":"Korkut, Mus, Turkey","latitude":38.7386,"longitude":41.78408},"Sungu, Mus, Turkey":{"id":"110477675638480","title":"Sungu, Mus, Turkey","latitude":38.745692242682,"longitude":41.604453574554},"Dersim, Mus, Turkey":{"id":"114764308537221","title":"Dersim, Mus, Turkey","latitude":38.85,"longitude":41.2333},"Kop, Mus, Turkey":{"id":"104947749542763","title":"Kop, Mus, Turkey","latitude":38.6167,"longitude":41.4833},"Bulanık, Mus, Turkey":{"id":"113663161980877","title":"Bulanık, Mus, Turkey","latitude":39.09832,"longitude":42.27188},"Mercimekkale, Mus, Turkey":{"id":"100242053350718","title":"Mercimekkale, Mus, Turkey","latitude":38.937277460765,"longitude":41.503227349747},"Varto":{"id":"103749522997034","title":"Varto","latitude":39.17245,"longitude":41.45614},"Malazgirt":{"id":"111211778903542","title":"Malazgirt","latitude":39.14595,"longitude":42.5411}}}
{"Manisa":{"Manisa":{"id":"103117686394986","title":"Manisa","latitude":38.6131,"longitude":27.4261},"Salihli, Manisa":{"id":"108093012545262","title":"Salihli, Manisa","latitude":38.4833,"longitude":28.1383},"Akhisar, Manisa":{"id":"109693795723706","title":"Akhisar, Manisa","latitude":38.9219,"longitude":27.8375},"Soma, Manisa":{"id":"103731786332959","title":"Soma, Manisa","latitude":39.184476425848,"longitude":27.611132672908},"Turgutlu, Manisa":{"id":"112084242141961","title":"Turgutlu, Manisa","latitude":38.5008,"longitude":27.7058},"Kula, Manisa":{"id":"103710223000637","title":"Kula, Manisa","latitude":38.545064960755,"longitude":28.631102463152},"Demirci, Manisa":{"id":"109908575701832","title":"Demirci, Manisa","latitude":39.045999009358,"longitude":28.648886662269},"Selendi, Manisa":{"id":"103758966329028","title":"Selendi, Manisa","latitude":38.743696668552,"longitude":28.862754296592},"Ahmetli, Manisa":{"id":"108398452517858","title":"Ahmetli, Manisa","latitude":38.51861,"longitude":27.93922},"Gördes, Manisa":{"id":"108050539215747","title":"Gördes, Manisa","latitude":38.93493,"longitude":28.28736}}}
{"Niğde":{"Niğde":{"id":"101898469852579","title":"Niğde","latitude":37.9685,"longitude":34.6758},"Bor, Niğde":{"id":"110311935656130","title":"Bor, Niğde","latitude":37.89293,"longitude":34.56006},"Çiftlik, Niğde":{"id":"110175959011695","title":"Çiftlik, Niğde","latitude":37.4453,"longitude":30.0542},"Kemerhisar, Niğde, Turkey":{"id":"110102619009185","title":"Kemerhisar, Niğde, Turkey","latitude":37.8167,"longitude":34.6},"Koyunlu, Niğde, Turkey":{"id":"113540158658275","title":"Koyunlu, Niğde, Turkey","latitude":37.982869189076,"longitude":34.595205340459},"Feslegen, Niğde, Turkey":{"id":"110394205646162","title":"Feslegen, Niğde, Turkey","latitude":37.987024181567,"longitude":34.555583950034},"Fertek, Niğde, Turkey":{"id":"106981035999577","title":"Fertek, Niğde, Turkey","latitude":37.971922607448,"longitude":34.622247312026},"Ulukısla, Niğde, Turkey":{"id":"109056119122428","title":"Ulukısla, Niğde, Turkey","latitude":38.05,"longitude":34.3167},"Adıyaman, Turkey":{"id":"190539877623335","title":"Adıyaman, Turkey","latitude":37.9167,"longitude":34.65},"Altunhisar":{"id":"105534482813575","title":"Altunhisar","latitude":38.00189,"longitude":34.36294}}}
{"Kayseri":{"Kayseri":{"id":"116043768410018","title":"Kayseri","latitude":38.7234,"longitude":35.4814},"Talas, Kayseri":{"id":"103727039666117","title":"Talas, Kayseri","latitude":38.6929,"longitude":35.5672},"Yahyalı, Kayseri":{"id":"109263565766209","title":"Yahyalı, Kayseri","latitude":38.109380671029,"longitude":35.358932799781},"Bünyan, Kayseri":{"id":"112805088731866","title":"Bünyan, Kayseri","latitude":38.8486,"longitude":35.8592},"Tomarza, Kayseri, Turkey":{"id":"107096229321916","title":"Tomarza, Kayseri, Turkey","latitude":38.4539,"longitude":35.7996},"Mardin, Kayseri, Turkey":{"id":"108461839183642","title":"Mardin, Kayseri, Turkey","latitude":38.5333,"longitude":35.7333},"Erciyes, Kayseri, Turkey":{"id":"106417389391523","title":"Erciyes, Kayseri, Turkey","latitude":38.6436,"longitude":35.5844},"Incesu, Kayseri, Turkey":{"id":"104948959543030","title":"Incesu, Kayseri, Turkey","latitude":38.428510007788,"longitude":35.583079848299},"Erkilet, Kayseri, Turkey":{"id":"113981091949947","title":"Erkilet, Kayseri, Turkey","latitude":38.8211,"longitude":35.4394},"Felahiye, Kayseri, Turkey":{"id":"106440902723791","title":"Felahiye, Kayseri, Turkey","latitude":39.088934089007,"longitude":35.572599904547}}}
{"Zonguldak":{"Zonguldak":{"id":"111766585506544","title":"Zonguldak","latitude":41.45,"longitude":31.7833},"Karadenizereglisi, Bolu, Turkey":{"id":"106378306061446","title":"Karadenizereglisi, Bolu, Turkey","latitude":41.2894,"longitude":31.4181},"Devrek, Bolu, Turkey":{"id":"111448135550811","title":"Devrek, Bolu, Turkey","latitude":41.222300482735,"longitude":31.9569667831},"Alaplı":{"id":"112713282073729","title":"Alaplı","latitude":41.1814,"longitude":31.3858},"Gülüç, Ereğli":{"id":"113430882005001","title":"Gülüç, Ereğli","latitude":41.249491496485,"longitude":31.418927103755},"Çaycuma, Bolu, Turkey":{"id":"104667202905745","title":"Çaycuma, Bolu, Turkey","latitude":41.416109331305,"longitude":32.094823698879},"Kandilli, Ereğli":{"id":"108150915886020","title":"Kandilli, Ereğli","latitude":41.344634782543,"longitude":31.503872774456},"Kilimli, Bolu, Turkey":{"id":"107016072663053","title":"Kilimli, Bolu, Turkey","latitude":41.48648,"longitude":31.83821},"Gelik, Bolu, Turkey":{"id":"107202685977981","title":"Gelik, Bolu, Turkey","latitude":41.476411985952,"longitude":31.886953985138},"Saltukova, Bolu, Turkey":{"id":"114138551934453","title":"Saltukova, Bolu, Turkey","latitude":41.521448337604,"longitude":32.094449597242}}}
{"Amasya":{"Amasya":{"id":"104100939627096","title":"Amasya","latitude":40.65195,"longitude":35.83459},"Suluova, Amasya, Turkey":{"id":"109068432448544","title":"Suluova, Amasya, Turkey","latitude":40.8364,"longitude":35.6428},"Uygur, Amasya, Turkey":{"id":"108596799163427","title":"Uygur, Amasya, Turkey","latitude":40.55981842753,"longitude":36.003745859261},"Ziyaret, Amasya, Turkey":{"id":"113355832009561","title":"Ziyaret, Amasya, Turkey","latitude":40.684814699763,"longitude":35.867705588695},"Alpaslan, Amasya, Turkey":{"id":"113711781976440","title":"Alpaslan, Amasya, Turkey","latitude":40.8072,"longitude":36.3422},"Boraboy, Amasya, Turkey":{"id":"113168245366782","title":"Boraboy, Amasya, Turkey","latitude":40.811567909857,"longitude":36.1816392948},"Ezinepazar, Amasya, Turkey":{"id":"112945798722774","title":"Ezinepazar, Amasya, Turkey","latitude":40.556392844708,"longitude":36.054585904636},"Taşova, Amasya, Turkey":{"id":"110070062344166","title":"Taşova, Amasya, Turkey","latitude":40.76046,"longitude":36.32217},"Seyhcui, Amasya, Turkey":{"id":"109117615777228","title":"Seyhcui, Amasya, Turkey","latitude":40.654474735078,"longitude":35.802364059594},"Nurani":{"id":"111886755488939","title":"Nurani","latitude":40.7333,"longitude":35.5667}}}
{"Yalova":{"Yalova":{"id":"107726215924188","title":"Yalova","latitude":40.6566,"longitude":29.274},"Yalova, Canakkale, Turkey":{"id":"106479682719581","title":"Yalova, Canakkale, Turkey","latitude":40.261636860382,"longitude":26.411897447538},"Taskopru, Yalova, Turkey":{"id":"113576861988502","title":"Taskopru, Yalova, Turkey","latitude":40.6736,"longitude":29.3911},"Senkoy, Yalova, Turkey":{"id":"113400925341892","title":"Senkoy, Yalova, Turkey","latitude":40.627477483853,"longitude":29.00203253441},"Kaytazdere, Yalova, Turkey":{"id":"112815642063242","title":"Kaytazdere, Yalova, Turkey","latitude":40.6783,"longitude":29.5286},"Cınarcık, Yalova, Turkey":{"id":"113073312038899","title":"Cınarcık, Yalova, Turkey","latitude":40.638632176028,"longitude":29.126358927016},"Yalova, Limassol, Cyprus":{"id":"108990812461774","title":"Yalova, Limassol, Cyprus","latitude":34.6667,"longitude":32.9},"Yalova, Lovech, Bulgaria":{"id":"106549746046631","title":"Yalova, Lovech, Bulgaria","latitude":42.97183707524,"longitude":25.578165148763},"Çiftlikköy, Yalova, Turkey":{"id":"104325436274963","title":"Çiftlikköy, Yalova, Turkey","latitude":40.669618013468,"longitude":29.333666568414},"Heybeliada, Istanbul, Turkey":{"id":"105073739528388","title":"Heybeliada, Istanbul, Turkey","latitude":40.875301219578,"longitude":29.090099159614}}}
{"Sinop":{"Sinop":{"id":"104107089624943","title":"Sinop","latitude":42.029533532725,"longitude":35.153594687012},"Sinop, Brazil":{"id":"163857153653920","title":"Sinop, Brazil","latitude":-11.873,"longitude":-55.4982},"Gerze, Sinop":{"id":"105616719472123","title":"Gerze, Sinop","latitude":41.80282,"longitude":35.20055},"Dikmen, Sinop":{"id":"749929495023723","title":"Dikmen, Sinop","latitude":41.65178,"longitude":35.26368},"Boyabat, Sinop, Turkey":{"id":"104908852877669","title":"Boyabat, Sinop, Turkey","latitude":41.46666,"longitude":34.76978},"Erfelek, Sinop, Turkey":{"id":"106617042706031","title":"Erfelek, Sinop, Turkey","latitude":41.8799,"longitude":34.9084},"Ayancık, Sinop, Turkey":{"id":"106402292726275","title":"Ayancık, Sinop, Turkey","latitude":41.94503,"longitude":34.58779},"Türkeli, Sinop, Turkey":{"id":"103386913036201","title":"Türkeli, Sinop, Turkey","latitude":41.94599,"longitude":34.33748},"Durağan, Sinop, Turkey":{"id":"109014372453269","title":"Durağan, Sinop, Turkey","latitude":41.41834,"longitude":35.05253},"Osmaniye, Sinop, Turkey":{"id":"110426858982877","title":"Osmaniye, Sinop, Turkey","latitude":41.993859437933,"longitude":35.060590555906}}}
{"Artvin":{"Artvin":{"id":"108029935885680","title":"Artvin","latitude":41.1809,"longitude":41.8209},"Hopa, Artvin":{"id":"104010022967970","title":"Hopa, Artvin","latitude":41.39628,"longitude":41.42105},"Yusufeli, Artvin":{"id":"112056498810576","title":"Yusufeli, Artvin","latitude":40.8167,"longitude":41.55},"Arhavi, Artvin":{"id":"112256992118666","title":"Arhavi, Artvin","latitude":41.35075,"longitude":41.30424},"Murgul, Artvin":{"id":"109284249089725","title":"Murgul, Artvin","latitude":41.28122,"longitude":41.56342},"Ardanuç, Artvin":{"id":"105944952769450","title":"Ardanuç, Artvin","latitude":41.1226,"longitude":42.06472},"Gumushane, Artvin, Turkey":{"id":"100243036684038","title":"Gumushane, Artvin, Turkey","latitude":41.1167,"longitude":41.9333},"Kemalpasa, Artvin, Turkey":{"id":"114224418591404","title":"Kemalpasa, Artvin, Turkey","latitude":41.48,"longitude":41.5269},"Sakarya, Artvin, Turkey":{"id":"109219905766033","title":"Sakarya, Artvin, Turkey","latitude":41.1,"longitude":42},"Berta, Artvin, Turkey":{"id":"109373822424205","title":"Berta, Artvin, Turkey","latitude":41.2517,"longitude":41.9897}}}
{"Ardahan":{"Ardahan":{"id":"105495676152048","title":"Ardahan","latitude":41.11281,"longitude":42.70192},"Posof, Ardahan":{"id":"106251156072528","title":"Posof, Ardahan","latitude":41.5087,"longitude":42.72801},"Hanak, Ardahan":{"id":"104045902964355","title":"Hanak, Ardahan","latitude":41.2361,"longitude":42.84569},"Damal, Ardahan":{"id":"108110685879208","title":"Damal, Ardahan","latitude":41.34046,"longitude":42.84056},"Ardahan, Malatya, Turkey":{"id":"113166898695939","title":"Ardahan, Malatya, Turkey","latitude":38.8667,"longitude":37.9},"Ardahan, Kıbrıs":{"id":"106495269386238","title":"Ardahan, Kıbrıs","latitude":35.3542,"longitude":33.8875},"Ardahan, Famagusta, Cyprus":{"id":"100243233350385","title":"Ardahan, Famagusta, Cyprus","latitude":35.358351585625,"longitude":33.885329346875},"Sulakyurt, Ardahan, Turkey":{"id":"109873675699065","title":"Sulakyurt, Ardahan, Turkey","latitude":41.1628,"longitude":42.6242},"Degirmenli, Ardahan, Turkey":{"id":"104923476210357","title":"Degirmenli, Ardahan, Turkey","latitude":41.176688299287,"longitude":42.595386963241},"Digor":{"id":"113865081957727","title":"Digor","latitude":40.375555555556,"longitude":43.4125}}}
{"Antalya":{"Antalya":{"id":"114957048520360","title":"Antalya","latitude":36.9,"longitude":30.6833},"Manavgat, Antalya":{"id":"108055969215952","title":"Manavgat, Antalya","latitude":36.7884,"longitude":31.4416},"Kemer, Antalya":{"id":"107934695905934","title":"Kemer, Antalya","latitude":36.6022,"longitude":30.5594},"Korkuteli, Antalya":{"id":"112287955455299","title":"Korkuteli, Antalya","latitude":37.0831,"longitude":30.2042},"Finike, Antalya":{"id":"112607225420390","title":"Finike, Antalya","latitude":36.303461156974,"longitude":30.144666625121},"Kalkan, Antalya":{"id":"106262792743472","title":"Kalkan, Antalya","latitude":36.2656,"longitude":29.4153},"Akseki, Antalya":{"id":"113512515326218","title":"Akseki, Antalya","latitude":37.044283809731,"longitude":31.791706312574},"Demre":{"id":"115162795164739","title":"Demre","latitude":36.1833,"longitude":29.8667},"Alanya":{"id":"103757799662439","title":"Alanya","latitude":36.5525,"longitude":32.0025},"Yozgat":{"id":"108628222495512","title":"Yozgat","latitude":36.4456,"longitude":29.8361}}}
{"Kırıkkale":{"Kırıkkale":{"id":"107920519228733","title":"Kırıkkale","latitude":39.841667,"longitude":33.513889},"Çelebi, Kırıkkale":{"id":"112490412097235","title":"Çelebi, Kırıkkale","latitude":39.46431,"longitude":33.52545},"Keskin":{"id":"108557345834662","title":"Keskin","latitude":39.67271,"longitude":33.61515},"Sulakyurt":{"id":"104070192963733","title":"Sulakyurt","latitude":40.1627,"longitude":33.7231},"Yahşihan":{"id":"110514882310830","title":"Yahşihan","latitude":39.84987,"longitude":33.45212},"Hasandede, Kırşehir, Turkey":{"id":"113766148634783","title":"Hasandede, Kırşehir, Turkey","latitude":39.7633,"longitude":33.5133},"Ortaköy, Corum, Turkey":{"id":"104978492873283","title":"Ortaköy, Corum, Turkey","latitude":40.1333,"longitude":33.6333},"Ahili, Kırşehir, Turkey":{"id":"110402605653649","title":"Ahili, Kırşehir, Turkey","latitude":39.793069118358,"longitude":33.550870626728},"Irmak, Ankara, Turkey":{"id":"113491788661910","title":"Irmak, Ankara, Turkey","latitude":39.9277669008,"longitude":33.3904116603},"Pazarcık, Kırşehir, Turkey":{"id":"106586756041366","title":"Pazarcık, Kırşehir, Turkey","latitude":39.916876076924,"longitude":33.617168296432}}}
{"Adana":{"Adana":{"id":"111806898837603","title":"Adana","latitude":36.9875,"longitude":35.3286},"Ceyhan, Adana":{"id":"112791142064432","title":"Ceyhan, Adana","latitude":37.0247,"longitude":35.8175},"Feke, Adana":{"id":"108011032560863","title":"Feke, Adana","latitude":37.81482,"longitude":35.91208},"Saimbeyli, Adana":{"id":"108191772534742","title":"Saimbeyli, Adana","latitude":37.98457,"longitude":36.08912},"Karaisalı, Adana":{"id":"108618285826654","title":"Karaisalı, Adana","latitude":37.254792526156,"longitude":35.058450117835},"Yumurtalık, Adana":{"id":"107819689238390","title":"Yumurtalık, Adana","latitude":36.769166666667,"longitude":35.796666666667},"Adana, Kogi, Nigeria":{"id":"113561478655835","title":"Adana, Kogi, Nigeria","latitude":7.98093,"longitude":6.76393},"Sofulu, Adana, Turkey":{"id":"110407998977312","title":"Sofulu, Adana, Turkey","latitude":37.5597,"longitude":35.1956},"Kozan":{"id":"104102322959549","title":"Kozan","latitude":37.461049122988,"longitude":35.813797936542},"Tufanbeyli":{"id":"105491869484251","title":"Tufanbeyli","latitude":38.26073,"longitude":36.22035}}}
{"Karaman":{"Karaman":{"id":"106573859377933","title":"Karaman","latitude":37.1811,"longitude":33.215},"Karaman, Azerbaijan":{"id":"102182553157342","title":"Karaman, Azerbaijan","latitude":40.5783,"longitude":47.8739},"Ayrancı, Karaman":{"id":"105652482803096","title":"Ayrancı, Karaman","latitude":37.36213,"longitude":33.68869},"Karaman, Ankara, Turkey":{"id":"105005239535330","title":"Karaman, Ankara, Turkey","latitude":40.304982440014,"longitude":33.003993801348},"Kazımkarabekir, Karaman":{"id":"107917035903802","title":"Kazımkarabekir, Karaman","latitude":37.2303,"longitude":32.9589},"Afgan, Karaman, Turkey":{"id":"104323229607903","title":"Afgan, Karaman, Turkey","latitude":36.9833,"longitude":33.0167},"Taşkale, Karaman":{"id":"114516315232509","title":"Taşkale, Karaman","latitude":37.140577091493,"longitude":33.612160251729},"Akcasehir, Karaman, Turkey":{"id":"107022622662594","title":"Akcasehir, Karaman, Turkey","latitude":37.4458,"longitude":33.4933},"Coglu, Karaman, Turkey":{"id":"110619388964768","title":"Coglu, Karaman, Turkey","latitude":37.430227727238,"longitude":33.300957719209},"Ermenek":{"id":"108635685826701","title":"Ermenek","latitude":36.638203065571,"longitude":32.897359364343}}}
{"Kahraman maraş":{}}
{"Hatay":{"Erzin, Hatay":{"id":"108145952541120","title":"Erzin, Hatay","latitude":36.95612,"longitude":36.19916},"Hassa, Hatay":{"id":"113329018682063","title":"Hassa, Hatay","latitude":36.7969,"longitude":36.52147},"İskenderun, Hatay":{"id":"112485378763867","title":"İskenderun, Hatay","latitude":36.5817,"longitude":36.165},"Kırıkhan, Hatay":{"id":"109449645739573","title":"Kırıkhan, Hatay","latitude":36.4983999,"longitude":36.35206},"Dörtyol, Hatay":{"id":"105487166152214","title":"Dörtyol, Hatay","latitude":36.826361325871,"longitude":36.202399032809},"Reyhanlı, Hatay":{"id":"105612022805838","title":"Reyhanlı, Hatay","latitude":36.26372,"longitude":36.56717},"Payas, Hatay, Turkey":{"id":"104666252904971","title":"Payas, Hatay, Turkey","latitude":36.7573999,"longitude":36.2162999},"Arsuz, Hatay, Turkey":{"id":"104334282939946","title":"Arsuz, Hatay, Turkey","latitude":36.4114,"longitude":35.8833},"Antakya":{"id":"112035222155853","title":"Antakya","latitude":36.2133,"longitude":36.156},"Belen":{"id":"109541362398155","title":"Belen","latitude":36.49228,"longitude":36.19364}}}
{"Çorum":{"Corum, Oklahoma":{"id":"104339742939477","title":"Corum, Oklahoma","latitude":34.3622,"longitude":-98.1039},"Sungurlu, Corum, Turkey":{"id":"108543862509126","title":"Sungurlu, Corum, Turkey","latitude":40.168459100061,"longitude":34.390322951695},"Iskilip, Corum, Turkey":{"id":"107158402657006","title":"Iskilip, Corum, Turkey","latitude":40.73162,"longitude":34.47232},"Dodurga, Corum, Turkey":{"id":"104272889612910","title":"Dodurga, Corum, Turkey","latitude":40.85663,"longitude":34.8132},"Manisar, Corum, Turkey":{"id":"110176562334360","title":"Manisar, Corum, Turkey","latitude":40.0167,"longitude":34.8167},"Denizli, Corum, Turkey":{"id":"104268816280712","title":"Denizli, Corum, Turkey","latitude":40.158489593185,"longitude":34.155610526148},"Osmancık, Corum, Turkey":{"id":"112712168741433","title":"Osmancık, Corum, Turkey","latitude":40.97352,"longitude":34.79922},"Çorum":{"id":"112021352142883","title":"Çorum","latitude":40.5499,"longitude":34.9537},"Alaca, Çorum":{"id":"111944658817141","title":"Alaca, Çorum","latitude":40.16723,"longitude":34.84009},"Dodurga, Çorum":{"id":"107541202608996","title":"Dodurga, Çorum","latitude":36.3983,"longitude":29.2053}}}
{"Iğdır":{"Iğdır":{"id":"109989905697053","title":"Iğdır","latitude":40.0667,"longitude":36.4},"Karakoyunlu, Iğdır":{"id":"107662072597142","title":"Karakoyunlu, Iğdır","latitude":38.3167,"longitude":36.3833},"Kiti, Iğdır, Turkey":{"id":"100244503350575","title":"Kiti, Iğdır, Turkey","latitude":40.0225,"longitude":43.8764},"Igdir, Bursa, Turkey":{"id":"110508458975054","title":"Igdir, Bursa, Turkey","latitude":40.260983173126,"longitude":29.200031494264},"Igdir, Erzurum, Turkey":{"id":"112822105396234","title":"Igdir, Erzurum, Turkey","latitude":40.201797621933,"longitude":40.699519558671},"Igdir, Ankara, Turkey":{"id":"103658616337273","title":"Igdir, Ankara, Turkey","latitude":40.313330826927,"longitude":32.679432884848},"Igdir, Samsun, Turkey":{"id":"104992152871686","title":"Igdir, Samsun, Turkey","latitude":41.35,"longitude":35.6167},"Igdir, Malatya, Turkey":{"id":"104879662881635","title":"Igdir, Malatya, Turkey","latitude":38.85,"longitude":38.0667},"Igdir, Kastamonu, Turkey":{"id":"109020329120927","title":"Igdir, Kastamonu, Turkey","latitude":40.772963235101,"longitude":33.814536316536},"Igdır, Agri, Turkey":{"id":"105011442869153","title":"Igdır, Agri, Turkey","latitude":39.928084411746,"longitude":44.039568199638}}}
{"Kocaeli":{"Gebze, Kocaeli":{"id":"109472632405161","title":"Gebze, Kocaeli","latitude":40.7978,"longitude":29.4306},"Karamürsel, Kocaeli":{"id":"107906829232245","title":"Karamürsel, Kocaeli","latitude":40.687486767288,"longitude":29.611897240583},"Derince, Kocaeli, Turkey":{"id":"110460525647291","title":"Derince, Kocaeli, Turkey","latitude":40.76206935534,"longitude":29.808016926864},"Denizli, Kocaeli, Turkey":{"id":"104965849538535","title":"Denizli, Kocaeli, Turkey","latitude":40.891781492283,"longitude":29.532182394955},"Kocaeli, Balikesir, Turkey":{"id":"108761185818982","title":"Kocaeli, Balikesir, Turkey","latitude":39.6242,"longitude":27.5124},"Kefken, Kocaeli, Turkey":{"id":"113240502021527","title":"Kefken, Kocaeli, Turkey","latitude":41.170353023496,"longitude":30.227648313855},"Degirmendere, Kocaeli, Turkey":{"id":"108614782501273","title":"Degirmendere, Kocaeli, Turkey","latitude":40.72,"longitude":29.7808},"Hereke, Kocaeli, Turkey":{"id":"100247220017686","title":"Hereke, Kocaeli, Turkey","latitude":40.783619629424,"longitude":29.618568176998},"Cebeci, Kocaeli, Turkey":{"id":"109221822438547","title":"Cebeci, Kocaeli, Turkey","latitude":41.190888373979,"longitude":30.25941027257},"İzmit":{"id":"111934462156212","title":"İzmit","latitude":40.776444,"longitude":29.94892}}}
{"Burdur":{"Burdur":{"id":"103118276395157","title":"Burdur","latitude":37.714657985287,"longitude":30.281587011083},"Bucak, Burdur":{"id":"107450192618332","title":"Bucak, Burdur","latitude":37.45792,"longitude":30.59619},"Golhisar, Burdur, Turkey":{"id":"110425102316304","title":"Golhisar, Burdur, Turkey","latitude":37.054500203728,"longitude":29.488119357386},"Yesilova, Burdur, Turkey":{"id":"109604555731262","title":"Yesilova, Burdur, Turkey","latitude":37.50553,"longitude":29.75398},"Tefenni, Burdur, Turkey":{"id":"109181825768711","title":"Tefenni, Burdur, Turkey","latitude":37.309201056545,"longitude":29.770121247649},"Kemer, Burdur, Turkey":{"id":"113040622046743","title":"Kemer, Burdur, Turkey","latitude":37.35151,"longitude":30.06218},"Giresun, Burdur, Turkey":{"id":"110436885641928","title":"Giresun, Burdur, Turkey","latitude":37.7333,"longitude":30.45},"Sogut, Burdur, Turkey":{"id":"113345565349199","title":"Sogut, Burdur, Turkey","latitude":37.031992383684,"longitude":29.818076497368},"Salda, Burdur, Turkey":{"id":"104897039547772","title":"Salda, Burdur, Turkey","latitude":37.5272,"longitude":29.6311},"Melli":{"id":"111811792169532","title":"Melli","latitude":37.25,"longitude":30.5167}}}
{"Aksaray":{"Aksaray":{"id":"112222422124336","title":"Aksaray","latitude":38.3742,"longitude":34.0289},"Güzelyurt, Aksaray":{"id":"108502299173925","title":"Güzelyurt, Aksaray","latitude":35.1981,"longitude":32.9914},"Aksaray, Kahramanmaraş, Turkey":{"id":"108951615791641","title":"Aksaray, Kahramanmaraş, Turkey","latitude":37.7167,"longitude":37.4333},"Eskil":{"id":"108262909195957","title":"Eskil","latitude":38.40172,"longitude":33.41322},"Ihlara, Güzelyurt":{"id":"109809615712577","title":"Ihlara, Güzelyurt","latitude":38.24019990887,"longitude":34.300580463489},"Yalman":{"id":"103792969659644","title":"Yalman","latitude":38.53382429125,"longitude":34.397722431502},"Ağaçören":{"id":"114354205248214","title":"Ağaçören","latitude":38.8722,"longitude":33.9172},"Yesiltepe":{"id":"115567795124758","title":"Yesiltepe","latitude":38.4639,"longitude":33.7667},"Ahırlı":{"id":"103116386394918","title":"Ahırlı","latitude":38.726070750733,"longitude":33.800820075804},"Eşmekaya, Kırşehir, Turkey":{"id":"110565212303706","title":"Eşmekaya, Kırşehir, Turkey","latitude":38.256847062244,"longitude":33.444951054521}}}
{"Trabzon":{"Trabzon":{"id":"109643532387617","title":"Trabzon","latitude":41.005,"longitude":39.7269},"Arsin, Trabzon":{"id":"103121469727715","title":"Arsin, Trabzon","latitude":40.9549,"longitude":39.93825},"Yomra, Trabzon":{"id":"112223215456158","title":"Yomra, Trabzon","latitude":40.95761,"longitude":39.85221},"Tonya, Trabzon":{"id":"112081692136520","title":"Tonya, Trabzon","latitude":40.88646,"longitude":39.2899699},"Hayrat, Trabzon":{"id":"111714872178317","title":"Hayrat, Trabzon","latitude":40.8667,"longitude":40.9167},"Sürmene, Trabzon":{"id":"109424555743249","title":"Sürmene, Trabzon","latitude":40.9112099,"longitude":40.1199299},"Maçka, Trabzon":{"id":"112424912102815","title":"Maçka, Trabzon","latitude":40.81133,"longitude":39.61362},"Araklı, Trabzon":{"id":"112353205442468","title":"Araklı, Trabzon","latitude":40.93723,"longitude":40.05844},"Çaykara, Trabzon":{"id":"108398312514748","title":"Çaykara, Trabzon","latitude":40.74836,"longitude":40.24251},"Ardesen":{"id":"110426058986079","title":"Ardesen","latitude":41.19247,"longitude":40.99258}}}
{"Ankara":{"Ankara":{"id":"106478736056198","title":"Ankara","latitude":39.923144,"longitude":32.854417},"Kalecik, Ankara":{"id":"112208505457653","title":"Kalecik, Ankara","latitude":40.090032216078,"longitude":33.41040937407},"Kazan, Ankara":{"id":"112018495480693","title":"Kazan, Ankara","latitude":40.20507,"longitude":32.681},"Akyurt, Ankara":{"id":"108084075878966","title":"Akyurt, Ankara","latitude":40.140719119157,"longitude":33.096049426258},"Polatlı, Ankara":{"id":"111922635491184","title":"Polatlı, Ankara","latitude":39.5864,"longitude":32.1439},"Elmadağ, Ankara":{"id":"106047779433547","title":"Elmadağ, Ankara","latitude":39.920952870107,"longitude":33.241445211578},"Bayburt, Ankara, Turkey":{"id":"113292695349241","title":"Bayburt, Ankara, Turkey","latitude":39.4872,"longitude":32.2433},"Haymana":{"id":"107813989241834","title":"Haymana","latitude":39.4345,"longitude":32.49602},"Ayaş":{"id":"112067478819977","title":"Ayaş","latitude":40.021055748978,"longitude":32.33322383982},"Balâ":{"id":"105478936151702","title":"Balâ","latitude":39.55392,"longitude":33.12353}}}
{"Aydın":{"Aydın":{"id":"108484655842573","title":"Aydın","latitude":37.8444,"longitude":27.8458},"Yenipazar, Aydın":{"id":"115868681759945","title":"Yenipazar, Aydın","latitude":37.824706222801,"longitude":28.188327695112},"Bozdogan, Aydin, Turkey":{"id":"113613261984849","title":"Bozdogan, Aydin, Turkey","latitude":37.67288,"longitude":28.31005},"Umurlu, Aydin, Turkey":{"id":"106633119370827","title":"Umurlu, Aydin, Turkey","latitude":37.848064354667,"longitude":27.958736852},"Yenihisar, Aydin, Turkey":{"id":"110305455662783","title":"Yenihisar, Aydin, Turkey","latitude":37.3756,"longitude":27.2678},"Ortaklar, Aydin, Turkey":{"id":"113469455334772","title":"Ortaklar, Aydin, Turkey","latitude":37.883306394107,"longitude":27.506910251448},"Davutlar, Aydin, Turkey":{"id":"113397068672201","title":"Davutlar, Aydin, Turkey","latitude":37.752018016095,"longitude":27.290955913859},"Acarlar, Aydin, Turkey":{"id":"104331129607787","title":"Acarlar, Aydin, Turkey","latitude":37.8244,"longitude":27.7467},"Nazilli":{"id":"107874102567304","title":"Nazilli","latitude":37.9125,"longitude":28.3206},"Söke":{"id":"112679405413155","title":"Söke","latitude":37.75874,"longitude":27.41915}}}
{"İstanbul":{"Riva, Istanbul, Turkey":{"id":"104969136205783","title":"Riva, Istanbul, Turkey","latitude":41.222830433917,"longitude":29.216547531279},"Agva, Istanbul, Turkey":{"id":"100245530017519","title":"Agva, Istanbul, Turkey","latitude":41.1381,"longitude":29.8567},"Heybeliada, Istanbul, Turkey":{"id":"105073739528388","title":"Heybeliada, Istanbul, Turkey","latitude":40.875301219578,"longitude":29.090099159614},"Kumburgaz, Istanbul, Turkey":{"id":"107121099319633","title":"Kumburgaz, Istanbul, Turkey","latitude":41.0317,"longitude":28.4606},"Nakkas, Istanbul, Turkey":{"id":"112808648734682","title":"Nakkas, Istanbul, Turkey","latitude":41.1906,"longitude":28.5536},"Cebeci, Istanbul, Turkey":{"id":"113839731963125","title":"Cebeci, Istanbul, Turkey","latitude":41.1242,"longitude":28.8786},"Karamandere, Istanbul, Turkey":{"id":"110907582261284","title":"Karamandere, Istanbul, Turkey","latitude":41.112106757012,"longitude":29.596754257745},"İstanbul":{"id":"106012156106461","title":"İstanbul","latitude":41.007932,"longitude":28.978144},"Tuzla, İstanbul":{"id":"106107922753356","title":"Tuzla, İstanbul","latitude":40.8167,"longitude":29.3008},"Adalar, İstanbul":{"id":"109144685778048","title":"Adalar, İstanbul","latitude":40.87374,"longitude":29.12797}}}
{"Yozgat":{"Yozgat":{"id":"108628222495512","title":"Yozgat","latitude":36.4456,"longitude":29.8361},"Yozgat, Turkey":{"id":"183488188342207","title":"Yozgat, Turkey","latitude":39.82313,"longitude":34.8072},"Akdagmadeni, Yozgat":{"id":"110359502326328","title":"Akdagmadeni, Yozgat","latitude":39.66006,"longitude":35.88319},"Saraykent, Yozgat":{"id":"107815732581200","title":"Saraykent, Yozgat","latitude":39.69138,"longitude":35.51089},"Sarıkaya, Yozgat":{"id":"107792285910068","title":"Sarıkaya, Yozgat","latitude":39.4936999,"longitude":35.37563},"Çekerek, Yozgat":{"id":"103765019661860","title":"Çekerek, Yozgat","latitude":40.07218,"longitude":35.49197},"Aydıncık, Yozgat":{"id":"104142136288798","title":"Aydıncık, Yozgat","latitude":40.13376,"longitude":35.2892},"Akdag, Yozgat, Turkey":{"id":"108797699150303","title":"Akdag, Yozgat, Turkey","latitude":39.3028,"longitude":35.6439},"Sorgun":{"id":"104178672952830","title":"Sorgun","latitude":39.8136,"longitude":35.186},"Tulum":{"id":"103940619642981","title":"Tulum","latitude":20.2147222222,"longitude":-87.4288888889}}}
{"Balıkesir":{"Balıkesir":{"id":"108361159188904","title":"Balıkesir","latitude":39.6492,"longitude":27.8861},"Edremit, Balıkesir":{"id":"106543262716898","title":"Edremit, Balıkesir","latitude":39.599784545726,"longitude":27.009854885357},"Dursunbey, Balikesir, Turkey":{"id":"110657742286358","title":"Dursunbey, Balikesir, Turkey","latitude":39.580516483255,"longitude":28.630335969911},"Kepsut, Balikesir, Turkey":{"id":"110422892310527","title":"Kepsut, Balikesir, Turkey","latitude":39.685533213936,"longitude":28.164587515321},"Avsa, Balikesir, Turkey":{"id":"104996106203756","title":"Avsa, Balikesir, Turkey","latitude":40.5120575403,"longitude":27.4973998837},"Manyas, Balikesir, Turkey":{"id":"106877772677869","title":"Manyas, Balikesir, Turkey","latitude":40.050663108168,"longitude":27.965726719813},"Kocaeli, Balikesir, Turkey":{"id":"108761185818982","title":"Kocaeli, Balikesir, Turkey","latitude":39.6242,"longitude":27.5124},"Ivrindi, Balikesir, Turkey":{"id":"105016006202116","title":"Ivrindi, Balikesir, Turkey","latitude":39.581248283138,"longitude":27.491708774335},"Marmara, Balikesir, Turkey":{"id":"109616622395960","title":"Marmara, Balikesir, Turkey","latitude":40.585664969223,"longitude":27.560588901698},"Havran":{"id":"110463515640987","title":"Havran","latitude":39.55552,"longitude":27.09719}}}
{"Eskişehir":{"Eskişehir":{"id":"114946661855780","title":"Eskişehir","latitude":39.7797,"longitude":30.511},"Mahmudiye, Eskişehir":{"id":"108080179220854","title":"Mahmudiye, Eskişehir","latitude":39.491930542961,"longitude":30.98764578505},"Han, Eskişehir":{"id":"115501501797051","title":"Han, Eskişehir","latitude":38.55,"longitude":36.1667},"Muttalip, Eskişehir, Turkey":{"id":"104934476210151","title":"Muttalip, Eskişehir, Turkey","latitude":39.8383,"longitude":30.55},"Mihalıccık, Eskişehir, Turkey":{"id":"109291095758557","title":"Mihalıccık, Eskişehir, Turkey","latitude":39.86606,"longitude":31.49575},"Sultandere, Eskişehir, Turkey":{"id":"114072398607742","title":"Sultandere, Eskişehir, Turkey","latitude":39.7297,"longitude":30.6083},"Alpu":{"id":"109636369062848","title":"Alpu","latitude":39.765325418977,"longitude":30.952252679949},"Sivrihisar":{"id":"107354505961020","title":"Sivrihisar","latitude":39.44832,"longitude":31.53894},"Seyitgazi":{"id":"105998929431129","title":"Seyitgazi","latitude":39.44572,"longitude":30.69429},"Beylikova":{"id":"109437302415801","title":"Beylikova","latitude":39.68694444,"longitude":31.20555556}}}
{"Denizli":{"Denizli":{"id":"109330919085413","title":"Denizli","latitude":37.7802,"longitude":29.0801},"Tavas, Denizli":{"id":"108123339208350","title":"Tavas, Denizli","latitude":37.564921030885,"longitude":29.066637120064},"Buldan, Denizli":{"id":"109375162423027","title":"Buldan, Denizli","latitude":38.04484,"longitude":28.83052},"Honaz, Denizli":{"id":"109545705738727","title":"Honaz, Denizli","latitude":37.763040690235,"longitude":29.281013626481},"Bozkurt, Denizli":{"id":"106447082725614","title":"Bozkurt, Denizli","latitude":37.82377,"longitude":29.60782},"Serinhisar, Denizli":{"id":"105545469479443","title":"Serinhisar, Denizli","latitude":37.58087,"longitude":29.26423},"Bekilli, Denizli":{"id":"107796279242417","title":"Bekilli, Denizli","latitude":38.22987,"longitude":29.41988},"Baklan, Denizli":{"id":"109387352414220","title":"Baklan, Denizli","latitude":37.981890155888,"longitude":29.60748018013},"Yatağan, Serinhisar":{"id":"115814645100012","title":"Yatağan, Serinhisar","latitude":37.566343064462,"longitude":29.373793017419},"Pamukkale":{"id":"109414122410202","title":"Pamukkale","latitude":37.91799,"longitude":29.11988}}}
{"Erzincan":{"Erzincan":{"id":"103787529660256","title":"Erzincan","latitude":39.75,"longitude":39.5},"Tercan, Erzincan":{"id":"108296502523909","title":"Tercan, Erzincan","latitude":39.77772,"longitude":40.3852199},"Refahiye, Erzincan":{"id":"103138209726285","title":"Refahiye, Erzincan","latitude":39.89997,"longitude":38.76902},"Kemah, Erzincan":{"id":"107965592560008","title":"Kemah, Erzincan","latitude":39.6016,"longitude":39.03267},"Kemaliye, Erzincan":{"id":"107826622579755","title":"Kemaliye, Erzincan","latitude":39.26303,"longitude":38.49722},"Otlukbeli, Erzincan, Turkey":{"id":"109719575726734","title":"Otlukbeli, Erzincan, Turkey","latitude":39.97191,"longitude":40.02177},"Urfat, Erzincan, Turkey":{"id":"108818012479908","title":"Urfat, Erzincan, Turkey","latitude":39.55,"longitude":38.9667},"Ulalar, Erzincan, Turkey":{"id":"106525919381703","title":"Ulalar, Erzincan, Turkey","latitude":39.754377827286,"longitude":39.445164712067},"Mercan, Erzincan, Turkey":{"id":"110640948961904","title":"Mercan, Erzincan, Turkey","latitude":39.742899803926,"longitude":40.269938240987},"Kemaliye":{"id":"109340142417095","title":"Kemaliye","latitude":39.2581,"longitude":38.4897}}}
{"Muğla":{"Mugla":{"id":"111251345566524","title":"Mugla","latitude":37.2152,"longitude":28.3637},"Bodrum, Muğla":{"id":"110466055647360","title":"Bodrum, Muğla","latitude":37.0383,"longitude":27.4292},"Yatağan, Muğla":{"id":"111867618831076","title":"Yatağan, Muğla","latitude":37.340292315601,"longitude":28.146962442335},"Ortaca, Muğla":{"id":"103770799662195","title":"Ortaca, Muğla","latitude":36.833333333333,"longitude":28.766666666667},"Ula, Muğla":{"id":"115950588419707","title":"Ula, Muğla","latitude":37.10239,"longitude":28.41757},"Akyaka, Ula":{"id":"115391151805373","title":"Akyaka, Ula","latitude":36.9333,"longitude":28.8167},"Datça":{"id":"109904209038665","title":"Datça","latitude":36.7275,"longitude":27.68749},"Marmaris":{"id":"109621862388951","title":"Marmaris","latitude":36.856388888889,"longitude":28.271111111111},"Fethiye":{"id":"103700183002371","title":"Fethiye","latitude":36.62697,"longitude":29.12422},"Milas":{"id":"103116409728912","title":"Milas","latitude":37.308335072274,"longitude":27.78630391579}}}
{"Bursa":{"Bursa":{"id":"103966002974751","title":"Bursa","latitude":40.1917,"longitude":29.0611},"Gemlik, Bursa":{"id":"108538965837123","title":"Gemlik, Bursa","latitude":40.4329,"longitude":29.1558},"Orhaneli, Bursa":{"id":"109401065744905","title":"Orhaneli, Bursa","latitude":39.9031,"longitude":28.98762},"Kursunlu, Bursa":{"id":"112108692147909","title":"Kursunlu, Bursa","latitude":40.0336,"longitude":29.6647},"İznik, Bursa":{"id":"109361675756059","title":"İznik, Bursa","latitude":40.4286,"longitude":29.7211},"Karsak, Bursa, Turkey":{"id":"113697288644688","title":"Karsak, Bursa, Turkey","latitude":40.403019350854,"longitude":29.258050982712},"Keles, Bursa, Turkey":{"id":"114555851891104","title":"Keles, Bursa, Turkey","latitude":39.91345,"longitude":29.23383},"Büyükorhan, Bursa":{"id":"103994579637287","title":"Büyükorhan, Bursa","latitude":39.76901,"longitude":28.88743},"Osmaniye, Bursa, Turkey":{"id":"114241865257285","title":"Osmaniye, Bursa, Turkey","latitude":39.962046410903,"longitude":28.645298832509},"Igdir, Bursa, Turkey":{"id":"110508458975054","title":"Igdir, Bursa, Turkey","latitude":40.260983173126,"longitude":29.200031494264}}}
{"Çankırı":{"Çankırı":{"id":"105718136129721","title":"Çankırı","latitude":40.6,"longitude":33.6176},"Ilgaz, Çankırı":{"id":"109335239084134","title":"Ilgaz, Çankırı","latitude":40.927065537336,"longitude":33.621948525386},"Eldivan":{"id":"108626509161518","title":"Eldivan","latitude":40.53036,"longitude":33.49522},"Kavra":{"id":"109479942411798","title":"Kavra","latitude":40.5667,"longitude":33.65},"Atkaracalar":{"id":"106158406081152","title":"Atkaracalar","latitude":40.81488,"longitude":33.07538},"Korgun":{"id":"103094756397004","title":"Korgun","latitude":40.73479,"longitude":33.51784},"Kurşunlu":{"id":"115323025148693","title":"Kurşunlu","latitude":40.84207,"longitude":33.26024},"Şabanözü":{"id":"115413851802313","title":"Şabanözü","latitude":40.4778,"longitude":33.2817},"Yozgat, Kastamonu, Turkey":{"id":"109553502402297","title":"Yozgat, Kastamonu, Turkey","latitude":40.9167,"longitude":33.2667},"Bayramören":{"id":"111751678836883","title":"Bayramören","latitude":40.94352,"longitude":33.20363}}}
{"Kütahya":{"Kütahya":{"id":"108364875853934","title":"Kütahya","latitude":39.416666666667,"longitude":29.983333333333},"Gediz, Kütahya":{"id":"106464572722202","title":"Gediz, Kütahya","latitude":38.9898,"longitude":29.39503},"Hisarcık, Kütahya":{"id":"104045132964372","title":"Hisarcık, Kütahya","latitude":39.247947461835,"longitude":29.217402035878},"Şaphane, Kütahya":{"id":"114746675208932","title":"Şaphane, Kütahya","latitude":39.014942876944,"longitude":29.215937604699},"Tavsanlı, Kütahya, Turkey":{"id":"113295808686820","title":"Tavsanlı, Kütahya, Turkey","latitude":39.54397,"longitude":29.49114},"Kurtdere, Kütahya, Turkey":{"id":"107360795967010","title":"Kurtdere, Kütahya, Turkey","latitude":39.1922,"longitude":29.1808},"Simav":{"id":"113291322017918","title":"Simav","latitude":39.083333333333,"longitude":28.983333333333},"Emet":{"id":"108306485859842","title":"Emet","latitude":39.34422,"longitude":29.25854},"Aslanapa":{"id":"107912555903860","title":"Aslanapa","latitude":39.21535,"longitude":29.87035},"Pazarlar":{"id":"108005792554137","title":"Pazarlar","latitude":38.993465976294,"longitude":29.121435169141}}}
{"Kastamonu":{"Kastamonu":{"id":"108452979179639","title":"Kastamonu","latitude":41.379682643954,"longitude":33.77609275958},"Tosya, Kastamonu":{"id":"108653465824921","title":"Tosya, Kastamonu","latitude":41.0097,"longitude":34.0369},"Cide, Kastamonu":{"id":"103117759728865","title":"Cide, Kastamonu","latitude":41.894975144959,"longitude":33.010011848465},"Bozkurt, Kastamonu":{"id":"104021649634712","title":"Bozkurt, Kastamonu","latitude":41.95831,"longitude":34.01104},"Azdavay, Kastamonu":{"id":"107503685946221","title":"Azdavay, Kastamonu","latitude":41.64202,"longitude":33.30079},"Daday, Kastamonu":{"id":"105603656139175","title":"Daday, Kastamonu","latitude":41.47603,"longitude":33.46447},"Seydiler, Kastamonu":{"id":"108450249179586","title":"Seydiler, Kastamonu","latitude":41.62072,"longitude":33.71848},"İnebolu, Kastamonu":{"id":"105970386100724","title":"İnebolu, Kastamonu","latitude":41.97916,"longitude":33.75991},"Taskopru, Kastamonu, Turkey":{"id":"109024289118758","title":"Taskopru, Kastamonu, Turkey","latitude":41.5139,"longitude":34.2147},"Abana":{"id":"106009786097832","title":"Abana","latitude":41.97857,"longitude":34.00226}}}
{"Hakkari":{"Derecik, Hakkari, Turkey":{"id":"103338033041061","title":"Derecik, Hakkari, Turkey","latitude":37.075,"longitude":44.3167},"Yesilova, Hakkari, Turkey":{"id":"113478815334279","title":"Yesilova, Hakkari, Turkey","latitude":37,"longitude":44.3167},"Otluca, Hakkari, Turkey":{"id":"108453582517387","title":"Otluca, Hakkari, Turkey","latitude":37.606353992393,"longitude":43.69076653587},"Çölemerik, Hakkari, Turkey":{"id":"113503585327659","title":"Çölemerik, Hakkari, Turkey","latitude":37.577650730313,"longitude":43.735517886254},"Anadag, Hakkari, Turkey":{"id":"113718738643063","title":"Anadag, Hakkari, Turkey","latitude":37.0041277,"longitude":44.259190166667},"Hakkari, Länsi-Suomen Lääni, Finland":{"id":"113596205318921","title":"Hakkari, Länsi-Suomen Lääni, Finland","latitude":61.3333,"longitude":23.75},"Akdemir, Hakkari, Turkey":{"id":"100249706683593","title":"Akdemir, Hakkari, Turkey","latitude":37.0833,"longitude":44.2667},"Mordag, Hakkari, Turkey":{"id":"112117485478826","title":"Mordag, Hakkari, Turkey","latitude":37.1,"longitude":44.4833},"Hakkâri":{"id":"112068945477515","title":"Hakkâri","latitude":37.57823530061,"longitude":43.737838879786},"Aralık, Iğdır":{"id":"108156409205890","title":"Aralık, Iğdır","latitude":37.1,"longitude":44.4417}}}
{"Isparta":{"Isparta":{"id":"105642032803656","title":"Isparta","latitude":37.7667,"longitude":30.55},"Aksu, Isparta":{"id":"107663609263031","title":"Aksu, Isparta","latitude":37.799,"longitude":31.071},"Yalvaç, Isparta":{"id":"108136405874801","title":"Yalvaç, Isparta","latitude":38.3,"longitude":31.183333333333},"Sütçüler, Isparta":{"id":"108514942509995","title":"Sütçüler, Isparta","latitude":37.491543440407,"longitude":30.98278293329},"Senirkent, Isparta, Turkey":{"id":"110292722331268","title":"Senirkent, Isparta, Turkey","latitude":38.1088,"longitude":30.55501},"Gelendost, Isparta, Turkey":{"id":"108933459129063","title":"Gelendost, Isparta, Turkey","latitude":38.122584455335,"longitude":31.014319180336},"Egridir, Isparta, Turkey":{"id":"106526759380179","title":"Egridir, Isparta, Turkey","latitude":37.8694,"longitude":30.8492},"Uluborlu, Isparta, Turkey":{"id":"100242566684841","title":"Uluborlu, Isparta, Turkey","latitude":38.074823061099,"longitude":30.459585797705},"Baris, Isparta, Turkey":{"id":"109260625761114","title":"Baris, Isparta, Turkey","latitude":37.7644,"longitude":30.5522},"Atabey, Isparta, Turkey":{"id":"100249210017565","title":"Atabey, Isparta, Turkey","latitude":37.955114998092,"longitude":30.64212184556}}}
{"Diyarbakır":{"Diyarbakır":{"id":"106171282753740","title":"Diyarbakır","latitude":37.9189,"longitude":40.2106},"Bismil, Diyarbakır, Turkey":{"id":"112545762098575","title":"Bismil, Diyarbakır, Turkey","latitude":37.84973,"longitude":40.66346},"Ergani, Diyarbakır, Turkey":{"id":"111625332194929","title":"Ergani, Diyarbakır, Turkey","latitude":38.26452,"longitude":39.75896},"Dicle, Diyarbakır, Turkey":{"id":"107389509298072","title":"Dicle, Diyarbakır, Turkey","latitude":38.37031,"longitude":40.07082},"Kurdis, Diyarbakır, Turkey":{"id":"106541399380256","title":"Kurdis, Diyarbakır, Turkey","latitude":37.2333,"longitude":40.9833},"Derik, Diyarbakır, Turkey":{"id":"111040045585737","title":"Derik, Diyarbakır, Turkey","latitude":37.3646,"longitude":40.2699},"Kulp, Diyarbakır, Turkey":{"id":"116312921717820","title":"Kulp, Diyarbakır, Turkey","latitude":38.50002,"longitude":41.01097},"Gercus, Diyarbakır, Turkey":{"id":"116009125078532","title":"Gercus, Diyarbakır, Turkey","latitude":37.56892363125,"longitude":41.38468668125},"Silvan":{"id":"106258312738837","title":"Silvan","latitude":38.14888,"longitude":41.00379},"Amadiye":{"id":"103747756330264","title":"Amadiye","latitude":38.2667,"longitude":39.6}}}
{"Rize":{"Rize":{"id":"108064112548647","title":"Rize","latitude":41.024676,"longitude":40.521847},"Pazar, Rize":{"id":"108109432542468","title":"Pazar, Rize","latitude":41.18072,"longitude":40.88741},"Kalkandere, Rize":{"id":"108212072532518","title":"Kalkandere, Rize","latitude":40.9333,"longitude":40.45},"Çayeli, Rize":{"id":"103788476325900","title":"Çayeli, Rize","latitude":41.10105,"longitude":40.73754},"Ayder, Rize, Turkey":{"id":"104341832939131","title":"Ayder, Rize, Turkey","latitude":40.953251529405,"longitude":41.101577878702},"Güneysu, Rize":{"id":"104080436293683","title":"Güneysu, Rize","latitude":40.97718,"longitude":40.61318},"İyidere, Rize":{"id":"109852609041233","title":"İyidere, Rize","latitude":41.01215,"longitude":40.3613799},"Derepazarı, Rize":{"id":"103127143060773","title":"Derepazarı, Rize","latitude":41.02473,"longitude":40.42608},"Ardesen":{"id":"110426058986079","title":"Ardesen","latitude":41.19247,"longitude":40.99258},"Fındıklı":{"id":"106186826079592","title":"Fındıklı","latitude":41.27255,"longitude":41.1430099}}}
{"Bingöl":{"Bingöl":{"id":"103784669660874","title":"Bingöl","latitude":38.8849,"longitude":40.496},"Solhan, Bingöl, Turkey":{"id":"116294228384580","title":"Solhan, Bingöl, Turkey","latitude":38.96708,"longitude":41.05445},"Kigi, Bingöl, Turkey":{"id":"113083772051632","title":"Kigi, Bingöl, Turkey","latitude":39.31006,"longitude":40.34943},"Genç, Bingöl, Turkey":{"id":"113208705372281","title":"Genç, Bingöl, Turkey","latitude":38.74857,"longitude":40.55262},"Sancak, Bingöl, Turkey":{"id":"106893849342200","title":"Sancak, Bingöl, Turkey","latitude":39.096029429412,"longitude":40.382331864706},"Yedisu, Bingöl, Turkey":{"id":"106997659340239","title":"Yedisu, Bingöl, Turkey","latitude":39.43395,"longitude":40.54502},"Bingöl, Sivas, Turkey":{"id":"107123909318790","title":"Bingöl, Sivas, Turkey","latitude":39.729504276008,"longitude":37.131890925536},"Yayladere, Bingöl, Turkey":{"id":"103378083037423","title":"Yayladere, Bingöl, Turkey","latitude":39.22671,"longitude":40.06838},"Kanires, Bingöl, Turkey":{"id":"113082968708953","title":"Kanires, Bingöl, Turkey","latitude":39.2983,"longitude":41.0142},"Karlıova, Bingöl, Turkey":{"id":"111482038879499","title":"Karlıova, Bingöl, Turkey","latitude":39.29557,"longitude":41.01142}}}
{"Samsun":{"Samsun":{"id":"109543862398205","title":"Samsun","latitude":41.28,"longitude":36.33},"Yakakent, Samsun":{"id":"112155852132870","title":"Yakakent, Samsun","latitude":41.63309,"longitude":35.52712},"Ladik, Samsun":{"id":"103774732994678","title":"Ladik, Samsun","latitude":40.90929,"longitude":35.89503},"Vezirköprü, Samsun":{"id":"108048815889831","title":"Vezirköprü, Samsun","latitude":41.14982,"longitude":35.46423},"Terme, Samsun, Turkey":{"id":"109272522426572","title":"Terme, Samsun, Turkey","latitude":41.2112399,"longitude":36.96521},"Alaçam, Samsun":{"id":"109248252426896","title":"Alaçam, Samsun","latitude":41.0833,"longitude":35.9333},"Havza, Samsun, Turkey":{"id":"108350419194766","title":"Havza, Samsun, Turkey","latitude":40.96749,"longitude":35.6665},"Kavak, Samsun, Turkey":{"id":"112978235384380","title":"Kavak, Samsun, Turkey","latitude":41.07016,"longitude":36.02844},"Canikli, Samsun, Turkey":{"id":"110673488958313","title":"Canikli, Samsun, Turkey","latitude":41.2,"longitude":36.4667},"Engiz, Samsun, Turkey":{"id":"116557245024274","title":"Engiz, Samsun, Turkey","latitude":41.4931,"longitude":36.0797}}}
{"Malatya":{"Malatya, Turkey":{"id":"101893426519501","title":"Malatya, Turkey","latitude":38.35,"longitude":38.3},"Darende, Malatya, Turkey":{"id":"111530122207805","title":"Darende, Malatya, Turkey","latitude":38.55676,"longitude":37.49083},"Malatya, Kyrenia, Cyprus":{"id":"108980082463314","title":"Malatya, Kyrenia, Cyprus","latitude":35.3292,"longitude":33.2083},"Hekimhan, Malatya, Turkey":{"id":"107161339323155","title":"Hekimhan, Malatya, Turkey","latitude":38.81551,"longitude":37.931},"Akcadag, Malatya, Turkey":{"id":"104952179541851","title":"Akcadag, Malatya, Turkey","latitude":38.34391,"longitude":37.97074},"Yesilyurt, Malatya, Turkey":{"id":"109437519087934","title":"Yesilyurt, Malatya, Turkey","latitude":38.29623,"longitude":38.24776},"Arguvan, Malatya, Turkey":{"id":"103344489707791","title":"Arguvan, Malatya, Turkey","latitude":38.7824,"longitude":38.26292},"Arapkir, Malatya, Turkey":{"id":"110505325635501","title":"Arapkir, Malatya, Turkey","latitude":39.0361,"longitude":38.4825},"Kale, Malatya, Turkey":{"id":"115974458417998","title":"Kale, Malatya, Turkey","latitude":38.41761,"longitude":38.76825},"Erkenek, Malatya, Turkey":{"id":"104641279574094","title":"Erkenek, Malatya, Turkey","latitude":37.9239,"longitude":37.8919}}}
{"Bartın":{"Bartın":{"id":"109699075715885","title":"Bartın","latitude":41.624654977015,"longitude":32.332925762374},"Amasra":{"id":"103745586330308","title":"Amasra","latitude":41.74891,"longitude":32.38554},"Bardy, Poland":{"id":"104069116297712","title":"Bardy, Poland","latitude":54.109310348612,"longitude":15.709516175611},"Kurucaşile, Kastamonu, Turkey":{"id":"116322091713649","title":"Kurucaşile, Kastamonu, Turkey","latitude":41.842683802104,"longitude":32.717963280633},"Ulus, Kastamonu, Turkey":{"id":"113984041949880","title":"Ulus, Kastamonu, Turkey","latitude":41.58509,"longitude":32.64034},"Kumluca, Kastamonu, Turkey":{"id":"104705772901291","title":"Kumluca, Kastamonu, Turkey","latitude":41.4495751802,"longitude":32.4642725485},"Fatma, Kastamonu, Turkey":{"id":"106571222710348","title":"Fatma, Kastamonu, Turkey","latitude":41.6,"longitude":32.3667},"Akkonak, Kastamonu, Turkey":{"id":"108645152498579","title":"Akkonak, Kastamonu, Turkey","latitude":41.79526476205,"longitude":32.509081468708},"Kozcagız, Kastamonu, Turkey":{"id":"100245900017044","title":"Kozcagız, Kastamonu, Turkey","latitude":41.476070401798,"longitude":32.339447072304},"Topluca, Kastamonu, Turkey":{"id":"109113832455447","title":"Topluca, Kastamonu, Turkey","latitude":41.654207203224,"longitude":32.294017114038}}}
{"Batman":{"Batman":{"id":"108152652539695","title":"Batman","latitude":37.8833,"longitude":41.1167},"Batman, Kordestan, Iran":{"id":"108924825802738","title":"Batman, Kordestan, Iran","latitude":34.7522,"longitude":46.9522},"Batman, Samarqand, Uzbekistan":{"id":"107033929328697","title":"Batman, Samarqand, Uzbekistan","latitude":40.2833,"longitude":66.8667},"Hasankeyf":{"id":"107477685941329","title":"Hasankeyf","latitude":37.718181149711,"longitude":41.41552069416},"Sason":{"id":"108444469179620","title":"Sason","latitude":38.33406,"longitude":41.41963},"Gercus, Diyarbakır, Turkey":{"id":"116009125078532","title":"Gercus, Diyarbakır, Turkey","latitude":37.56892363125,"longitude":41.38468668125},"Kozluk, Diyarbakır, Turkey":{"id":"111252052237769","title":"Kozluk, Diyarbakır, Turkey","latitude":38.17395,"longitude":41.49459},"Békés":{"id":"111759118842367","title":"Békés","latitude":37.65,"longitude":41.3},"Besiri, Diyarbakır, Turkey":{"id":"109022259130514","title":"Besiri, Diyarbakır, Turkey","latitude":37.9185299,"longitude":41.29081},"Gaziler, Diyarbakır, Turkey":{"id":"109105292450108","title":"Gaziler, Diyarbakır, Turkey","latitude":37.6833,"longitude":41.0833}}}
{"Çanakkale":{"Geyikli, Canakkale, Turkey":{"id":"108806529141511","title":"Geyikli, Canakkale, Turkey","latitude":39.8047,"longitude":26.2075},"Yalova, Canakkale, Turkey":{"id":"106479682719581","title":"Yalova, Canakkale, Turkey","latitude":40.261636860382,"longitude":26.411897447538},"Behram, Canakkale, Turkey":{"id":"106982369342340","title":"Behram, Canakkale, Turkey","latitude":39.493928670637,"longitude":26.332244408824},"Umurbey, Canakkale, Turkey":{"id":"108914829129258","title":"Umurbey, Canakkale, Turkey","latitude":40.235315651641,"longitude":26.605720279701},"Gumuscay, Canakkale, Turkey":{"id":"106521612714411","title":"Gumuscay, Canakkale, Turkey","latitude":40.28237123137,"longitude":27.281542331445},"Çanakkale":{"id":"110858958939292","title":"Çanakkale","latitude":40.1456,"longitude":26.4064},"Yenice, Çanakkale":{"id":"108554359176710","title":"Yenice, Çanakkale","latitude":39.85,"longitude":26.7167},"Biga":{"id":"106270732745507","title":"Biga","latitude":40.223127794258,"longitude":27.247466287734},"Gelibolu":{"id":"108212379207749","title":"Gelibolu","latitude":40.40739,"longitude":26.67199},"Çan, Çanakkale":{"id":"112441938768343","title":"Çan, Çanakkale","latitude":40.0296,"longitude":27.05157}}}
{"Konya":{"Konya":{"id":"110738488953456","title":"Konya","latitude":37.863,"longitude":32.4811},"Emirgazi, Konya":{"id":"108008199227813","title":"Emirgazi, Konya","latitude":37.910286632498,"longitude":33.836605859899},"Ereğli, Konya":{"id":"108394239188388","title":"Ereğli, Konya","latitude":37.508221077929,"longitude":34.047921216108},"Çumra, Konya":{"id":"109338822425996","title":"Çumra, Konya","latitude":37.575,"longitude":32.7747},"Selçuklu, Konya":{"id":"108547839169704","title":"Selçuklu, Konya","latitude":37.881389,"longitude":32.492222},"Bozkır, Konya":{"id":"108406259183465","title":"Bozkır, Konya","latitude":37.1869,"longitude":32.24539},"Ilgın, Konya":{"id":"103744166331485","title":"Ilgın, Konya","latitude":38.3664,"longitude":28.5719},"Karapınar, Konya":{"id":"113264982017173","title":"Karapınar, Konya","latitude":37.721494051743,"longitude":33.545219320776},"Kulu":{"id":"108661892491937","title":"Kulu","latitude":39.106855637337,"longitude":33.077802040632},"Hadim":{"id":"106081902765009","title":"Hadim","latitude":36.9857299,"longitude":32.45405}}}
{"Bolu":{"Bolu":{"id":"107848832571842","title":"Bolu","latitude":40.7358,"longitude":31.6061},"Gerede, Bolu, Turkey":{"id":"107160045989396","title":"Gerede, Bolu, Turkey","latitude":40.798268371056,"longitude":32.199822238578},"Karadenizereglisi, Bolu, Turkey":{"id":"106378306061446","title":"Karadenizereglisi, Bolu, Turkey","latitude":41.2894,"longitude":31.4181},"Mengen, Bolu, Turkey":{"id":"100249056683778","title":"Mengen, Bolu, Turkey","latitude":40.93881,"longitude":32.0716},"Mudurnu, Bolu, Turkey":{"id":"108749922485959","title":"Mudurnu, Bolu, Turkey","latitude":40.462691401982,"longitude":31.212176388729},"Devrek, Bolu, Turkey":{"id":"111448135550811","title":"Devrek, Bolu, Turkey","latitude":41.222300482735,"longitude":31.9569667831},"Seben, Bolu, Turkey":{"id":"106555549379294","title":"Seben, Bolu, Turkey","latitude":40.41151,"longitude":31.5734},"Geredeh, Bolu, Turkey":{"id":"112785042067043","title":"Geredeh, Bolu, Turkey","latitude":40.7934051,"longitude":32.1906187},"Kozlu, Bolu, Turkey":{"id":"106896512674858","title":"Kozlu, Bolu, Turkey","latitude":40.801869075492,"longitude":31.606299271782},"Konuralp, Bolu, Turkey":{"id":"106866612677527","title":"Konuralp, Bolu, Turkey","latitude":40.9033,"longitude":31.1475}}}
{"Gaziantep":{"Gaziantep":{"id":"108149785880274","title":"Gaziantep","latitude":37.066666666667,"longitude":37.383333333333},"İslahiye, Gaziantep":{"id":"112416262103943","title":"İslahiye, Gaziantep","latitude":37.026950833859,"longitude":36.630257461883},"Araban, Gaziantep, Turkey":{"id":"116151218398049","title":"Araban, Gaziantep, Turkey","latitude":37.4232423087,"longitude":37.693681365633},"Oguzeli, Gaziantep, Turkey":{"id":"108953635798961","title":"Oguzeli, Gaziantep, Turkey","latitude":36.964724888668,"longitude":37.514458865812},"Yavuzeli, Gaziantep, Turkey":{"id":"109159052450233","title":"Yavuzeli, Gaziantep, Turkey","latitude":37.319440685218,"longitude":37.565506428548},"Aktoprak, Gaziantep, Turkey":{"id":"110469185646588","title":"Aktoprak, Gaziantep, Turkey","latitude":37.1833,"longitude":37.2833},"Cevizli, Gaziantep, Turkey":{"id":"110649005628916","title":"Cevizli, Gaziantep, Turkey","latitude":36.935571095325,"longitude":37.110861890277},"Beylerbeyi, Gaziantep, Turkey":{"id":"114271068582979","title":"Beylerbeyi, Gaziantep, Turkey","latitude":37.1333,"longitude":37.3667},"Elif, Gaziantep, Turkey":{"id":"109018035786350","title":"Elif, Gaziantep, Turkey","latitude":37.3833,"longitude":37.8667},"Fevzipasa, Gaziantep, Turkey":{"id":"108910932470403","title":"Fevzipasa, Gaziantep, Turkey","latitude":37.100257100449,"longitude":36.640703055476}}}
{"Uşak":{"Uşak":{"id":"112305085447655","title":"Uşak","latitude":38.6705,"longitude":29.4077},"Usak":{"id":"112699005416577","title":"Usak","latitude":43.343,"longitude":19.9575},"Ulubey, Uşak":{"id":"110493975646317","title":"Ulubey, Uşak","latitude":38.41735324554,"longitude":29.287068456653},"Usak, Bhutan":{"id":"108002272553482","title":"Usak, Bhutan","latitude":27.25,"longitude":89.766666666667},"Esme, Usak, Turkey":{"id":"113360245345644","title":"Esme, Usak, Turkey","latitude":38.39981258952,"longitude":28.961243330615},"Avgan, Usak, Turkey":{"id":"116130941731389","title":"Avgan, Usak, Turkey","latitude":38.4131,"longitude":29.39},"Tatar, Usak, Turkey":{"id":"107069365991793","title":"Tatar, Usak, Turkey","latitude":38.460845,"longitude":29.6518514},"Yayalar, Usak, Turkey":{"id":"110452692315098","title":"Yayalar, Usak, Turkey","latitude":38.4647,"longitude":29.5892},"Sorkun, Usak, Turkey":{"id":"115504021800241","title":"Sorkun, Usak, Turkey","latitude":38.733634200681,"longitude":29.407926272751},"Yenisehir, Usak, Turkey":{"id":"109422669082917","title":"Yenisehir, Usak, Turkey","latitude":38.65826079357,"longitude":29.013475765824}}}
{"Ordu":{"Ordu":{"id":"108641602493503","title":"Ordu","latitude":40.9754,"longitude":37.8903},"Fatsa, Ordu":{"id":"109187195774354","title":"Fatsa, Ordu","latitude":41.0278,"longitude":37.5014},"Kumru, Ordu":{"id":"109342475750879","title":"Kumru, Ordu","latitude":40.87261,"longitude":37.26191},"Korgan, Ordu":{"id":"112804568731754","title":"Korgan, Ordu","latitude":40.7333,"longitude":37.2167},"Ulubey, Ordu":{"id":"112259495457423","title":"Ulubey, Ordu","latitude":40.87228,"longitude":37.7578},"Ünye, Ordu":{"id":"108155325871728","title":"Ünye, Ordu","latitude":41.1314,"longitude":37.2825},"Aybastı, Ordu":{"id":"103986976303759","title":"Aybastı, Ordu","latitude":40.68403,"longitude":37.39804},"Akkuş, Ordu":{"id":"106555382715084","title":"Akkuş, Ordu","latitude":40.7914,"longitude":37.01827},"Gölköy, Ordu":{"id":"108233372537366","title":"Gölköy, Ordu","latitude":40.68798,"longitude":37.61788},"Mesudiye":{"id":"108000445887453","title":"Mesudiye","latitude":40.46379,"longitude":37.77371}}}
{"Bilecik":{"Bilecik":{"id":"112296995452965","title":"Bilecik","latitude":40.147180972491,"longitude":29.983128037362},"Söğüt, Bilecik":{"id":"114390405240601","title":"Söğüt, Bilecik","latitude":40.017768953675,"longitude":30.182285078495},"Gündüzbey, Bilecik, Turkey":{"id":"109877649037269","title":"Gündüzbey, Bilecik, Turkey","latitude":39.954166251722,"longitude":30.217810807222},"Osmaneli, Bilecik, Turkey":{"id":"113558861994683","title":"Osmaneli, Bilecik, Turkey","latitude":40.3582899,"longitude":30.01561},"Pazaryeri, Bilecik, Turkey":{"id":"104965749540526","title":"Pazaryeri, Bilecik, Turkey","latitude":39.9986104782,"longitude":29.904790287917},"Bozüyük, Bilecik, Turkey":{"id":"106300749404478","title":"Bozüyük, Bilecik, Turkey","latitude":39.9078,"longitude":30.0367},"Inonu, Bilecik, Turkey":{"id":"108543902508719","title":"Inonu, Bilecik, Turkey","latitude":39.8131,"longitude":30.1439},"Yenipazar, Bilecik, Turkey":{"id":"109283569093165","title":"Yenipazar, Bilecik, Turkey","latitude":40.17652,"longitude":30.51962},"Vezirhan, Bilecik, Turkey":{"id":"107054239325955","title":"Vezirhan, Bilecik, Turkey","latitude":40.244465694923,"longitude":30.021914198308},"Dodurga, Bilecik, Turkey":{"id":"108653855824013","title":"Dodurga, Bilecik, Turkey","latitude":39.80108122406,"longitude":29.915926904511}}}
{"Bitlis":{"Bitlis":{"id":"108115199210678","title":"Bitlis","latitude":38.3995,"longitude":42.108},"Tatvan, Bitlis":{"id":"103743539664529","title":"Tatvan, Bitlis","latitude":38.50343,"longitude":42.28222},"Ahlat, Bitlis":{"id":"121453904615040","title":"Ahlat, Bitlis","latitude":38.75397,"longitude":42.49259},"Hizan, Bitlis":{"id":"105487806150376","title":"Hizan, Bitlis","latitude":38.1167,"longitude":42.4167},"Mutki, Bitlis":{"id":"103095743064231","title":"Mutki, Bitlis","latitude":38.40923,"longitude":41.9219},"Adilcevaz, Bitlis":{"id":"104070862963725","title":"Adilcevaz, Bitlis","latitude":38.80438,"longitude":42.73498},"Güroymak, Bitlis":{"id":"109501322402919","title":"Güroymak, Bitlis","latitude":38.57591,"longitude":42.02239},"Kurtalan, Bitlis, Turkey":{"id":"116247218389138","title":"Kurtalan, Bitlis, Turkey","latitude":37.92688,"longitude":41.70372},"Norsin, Bitlis, Turkey":{"id":"109076879114671","title":"Norsin, Bitlis, Turkey","latitude":38.5597,"longitude":42.0397},"Eruh, Bitlis, Turkey":{"id":"111375578891907","title":"Eruh, Bitlis, Turkey","latitude":37.74882,"longitude":42.17928}}}
{"Sivas":{"Sivas":{"id":"104119412956723","title":"Sivas","latitude":39.75,"longitude":37.016666666667},"Koyulhisar, Sivas, Turkey":{"id":"109542139076169","title":"Koyulhisar, Sivas, Turkey","latitude":40.29945,"longitude":37.83165},"Gemerek, Sivas, Turkey":{"id":"111829345508004","title":"Gemerek, Sivas, Turkey","latitude":39.18464,"longitude":36.07521},"Divrigin, Sivas, Turkey":{"id":"106487622717656","title":"Divrigin, Sivas, Turkey","latitude":40.1833,"longitude":37.2},"Hafik, Sivas, Turkey":{"id":"103369973038744","title":"Hafik, Sivas, Turkey","latitude":39.8552,"longitude":37.39435},"Akıncılar, Sivas":{"id":"103121493061930","title":"Akıncılar, Sivas","latitude":40.08459,"longitude":38.34528},"Zārā, Sivas, Turkey":{"id":"113007038724695","title":"Zārā, Sivas, Turkey","latitude":39.89689,"longitude":37.75797},"Pusat, Sivas, Turkey":{"id":"113632601983712","title":"Pusat, Sivas, Turkey","latitude":40.0333,"longitude":37.45},"Sarkısla, Sivas, Turkey":{"id":"106515256048947","title":"Sarkısla, Sivas, Turkey","latitude":39.34573,"longitude":36.40237},"Kangāl, Sivas, Turkey":{"id":"112350655451015","title":"Kangāl, Sivas, Turkey","latitude":39.23557,"longitude":37.39159}}}
{"Şırnak":{"Silopi, Sirnak, Turkey":{"id":"109082472459810","title":"Silopi, Sirnak, Turkey","latitude":37.2479,"longitude":42.45619},"Idil, Sirnak, Turkey":{"id":"103340489707605","title":"Idil, Sirnak, Turkey","latitude":37.34206,"longitude":41.89155},"Uludere, Sirnak, Turkey":{"id":"110644308962001","title":"Uludere, Sirnak, Turkey","latitude":37.44711,"longitude":42.85033},"Gever, Sirnak, Turkey":{"id":"106515876048632","title":"Gever, Sirnak, Turkey","latitude":37.6,"longitude":42.3},"Beytussebap, Sirnak, Turkey":{"id":"107298445971923","title":"Beytussebap, Sirnak, Turkey","latitude":37.5694,"longitude":43.1681},"Senoba, Sirnak, Turkey":{"id":"109106682451582","title":"Senoba, Sirnak, Turkey","latitude":37.4639,"longitude":42.7164},"Balveren, Sirnak, Turkey":{"id":"113613608650520","title":"Balveren, Sirnak, Turkey","latitude":37.4833,"longitude":42.5469},"Girikamo, Sirnak, Turkey":{"id":"106516162715891","title":"Girikamo, Sirnak, Turkey","latitude":37.247649476034,"longitude":42.461526716897},"Şırnak":{"id":"106010369437920","title":"Şırnak","latitude":37.52172,"longitude":42.45423},"Cizre":{"id":"108666905824444","title":"Cizre","latitude":37.3314,"longitude":42.1869}}}
{"Giresun":{"Giresun":{"id":"111644725518871","title":"Giresun","latitude":40.9153,"longitude":38.3894},"Bulancak, Giresun":{"id":"108506779174673","title":"Bulancak, Giresun","latitude":40.93697,"longitude":38.23129},"Tirebolu, Giresun":{"id":"103825956322168","title":"Tirebolu, Giresun","latitude":41.0063,"longitude":38.81326},"Espiye, Giresun":{"id":"108360129192012","title":"Espiye, Giresun","latitude":40.94956,"longitude":38.70772},"Alucra, Giresun":{"id":"108288725861474","title":"Alucra, Giresun","latitude":40.3219,"longitude":38.76629},"Dereli, Giresun":{"id":"106127519417556","title":"Dereli, Giresun","latitude":40.73928,"longitude":38.44963},"Eynesil, Giresun":{"id":"108002409222823","title":"Eynesil, Giresun","latitude":41.06465,"longitude":39.14213},"Piraziz, Giresun":{"id":"106131452751893","title":"Piraziz, Giresun","latitude":40.95275,"longitude":38.12605},"Görele, Giresun":{"id":"106066862758598","title":"Görele, Giresun","latitude":41.03252,"longitude":39.00253},"Aksu, Dereli":{"id":"108115492555744","title":"Aksu, Dereli","latitude":40.5667,"longitude":38.2167}}}
{"İzmir":{"Aliaga, Izmir, Turkey":{"id":"106536462714538","title":"Aliaga, Izmir, Turkey","latitude":38.8014,"longitude":26.97302},"İzmir":{"id":"107968765903327","title":"İzmir","latitude":38.4249,"longitude":27.1518},"Urla":{"id":"106296429408736","title":"Urla","latitude":38.325723319594,"longitude":26.757711659436},"Kiraz, İzmir":{"id":"108208109203659","title":"Kiraz, İzmir","latitude":38.23138,"longitude":28.20486},"Tire, İzmir":{"id":"108659165833794","title":"Tire, İzmir","latitude":38.095939077554,"longitude":27.730539534395},"Dikili, İzmir":{"id":"104014766300648","title":"Dikili, İzmir","latitude":39.07059,"longitude":26.88811},"Seferihisar, İzmir":{"id":"109527865740937","title":"Seferihisar, İzmir","latitude":38.1959,"longitude":26.83849},"Karaburun, İzmir":{"id":"104124352957647","title":"Karaburun, İzmir","latitude":38.63596,"longitude":26.51017},"Efes, İzmir":{"id":"114412201904447","title":"Efes, İzmir","latitude":37.8575,"longitude":27.2611},"Kınık, İzmir":{"id":"103802552992356","title":"Kınık, İzmir","latitude":39.0872,"longitude":27.3833}}}
{"Bayburt":{"Bayburt":{"id":"112745125406386","title":"Bayburt","latitude":40.2567,"longitude":40.2223},"Sancaktepe, Bayburt":{"id":"327841537329000","title":"Sancaktepe, Bayburt","latitude":40.1792,"longitude":40.094},"Bayburt, Ankara, Turkey":{"id":"113292695349241","title":"Bayburt, Ankara, Turkey","latitude":39.4872,"longitude":32.2433},"Off, Trabzon, Turkey":{"id":"108844895802801","title":"Off, Trabzon, Turkey","latitude":40.95,"longitude":40.2667},"Igdir, Erzurum, Turkey":{"id":"112822105396234","title":"Igdir, Erzurum, Turkey","latitude":40.201797621933,"longitude":40.699519558671},"Pelitli, Trabzon, Turkey":{"id":"108883162472432","title":"Pelitli, Trabzon, Turkey","latitude":40.471746252541,"longitude":40.386043514048},"Gundogdu, Rize, Turkey":{"id":"106983992666574","title":"Gundogdu, Rize, Turkey","latitude":41.05,"longitude":40.6},"Hindi, Erzincan, Turkey":{"id":"103356946372226","title":"Hindi, Erzincan, Turkey","latitude":40.2,"longitude":40.0667},"Duduzar, Erzurum, Turkey":{"id":"109059649114792","title":"Duduzar, Erzurum, Turkey","latitude":40.2833,"longitude":40.2667},"Konursu, Erzurum, Turkey":{"id":"104728172899982","title":"Konursu, Erzurum, Turkey","latitude":40.3942,"longitude":40.2547}}}
{"Mardin":{"Mardin":{"id":"113577665322235","title":"Mardin","latitude":37.3245,"longitude":40.7201},"Mardin, Pennsylvania":{"id":"104698149569258","title":"Mardin, Pennsylvania","latitude":41.7986,"longitude":-77.1656},"Mardin, Kayseri, Turkey":{"id":"108461839183642","title":"Mardin, Kayseri, Turkey","latitude":38.5333,"longitude":35.7333},"Midyat":{"id":"112763622067930","title":"Midyat","latitude":37.42476,"longitude":41.33928},"Nusaybin":{"id":"112244885455097","title":"Nusaybin","latitude":37.06688,"longitude":41.21669},"Doğançay, Midyat":{"id":"107945925905985","title":"Doğançay, Midyat","latitude":37.3833,"longitude":41.45},"Mahat":{"id":"108148919210103","title":"Mahat","latitude":37.3167,"longitude":40.1333},"Kurdis, Diyarbakır, Turkey":{"id":"106541399380256","title":"Kurdis, Diyarbakır, Turkey","latitude":37.2333,"longitude":40.9833},"Derik, Diyarbakır, Turkey":{"id":"111040045585737","title":"Derik, Diyarbakır, Turkey","latitude":37.3646,"longitude":40.2699},"Kızıltepe, Diyarbakır, Turkey":{"id":"106853872678388","title":"Kızıltepe, Diyarbakır, Turkey","latitude":37.19329,"longitude":40.58769}}}
